,Unnamed: 0,Name,global_id,TypeObject,AdmArea,District,Address,SeatsCount,Longitude_WGS84,Latitude_WGS84,geoData,SeatClass
0,0,СМЕТАНА,637376221,кафе,Северо-Восточный административный округ,Ярославский район,"город Москва, улица Егора Абакумова, дом 9",48,37.71456500043604,55.879001531303366,"{type=Point, coordinates=[37.71456500043604, 55.87900153130337]}",Средний
1,1,Родник,637376331,кафе,Центральный административный округ,Таганский район,"город Москва, улица Талалихина, дом 2/1, корпус 1",35,37.6733061300344,55.7382386551547,"{type=Point, coordinates=[37.6733061300344, 55.7382386551547]}",Средний
2,2,Кафе «Академия»,637376349,кафе,Центральный административный округ,Таганский район,"город Москва, Абельмановская улица, дом 6",95,37.6696475969381,55.7355114718314,"{type=Point, coordinates=[37.6696475969381, 55.7355114718314]}",Большой
3,3,ПИЦЦЕТОРИЯ,637376381,кафе,Северо-Восточный административный округ,район Лианозово,"город Москва, Абрамцевская улица, дом 1",40,37.573329471209796,55.89195653973111,"{type=Point, coordinates=[37.5733294712098, 55.8919565397311]}",Средний
4,4,Кафе «Вишневая метель»,637376403,кафе,Северо-Восточный административный округ,район Лианозово,"город Москва, Абрамцевская улица, дом 9, корпус 1",50,37.57230613167112,55.90408636984904,"{type=Point, coordinates=[37.57230613167112, 55.90408636984904]}",Средний
5,6,Брусника,637376481,кафе,Центральный административный округ,район Арбат,"город Москва, переулок Сивцев Вражек, дом 6/2",10,37.59812754844,55.747390490526,"{type=Point, coordinates=[37.59812754843999, 55.747390490525994]}",Маленький
6,11,Гогиели,637376678,кафе,Юго-Восточный административный округ,район Лефортово,"город Москва, Авиамоторная улица, дом 49/1",24,37.719950378859075,55.74927598927656,"{type=Point, coordinates=[37.71995037885907, 55.74927598927656]}",Маленький
7,13,Алло Пицца,637376719,кафе,Новомосковский административный округ,поселение Щербинка,"город Москва, улица Авиаторов, дом 14",32,37.533280862092866,55.51401055012197,"{type=Point, coordinates=[37.53328086209287, 55.51401055012196]}",Средний
8,19,Американская Лаборатория Десертов,637377268,кафе,Центральный административный округ,район Арбат,"город Москва, Филипповский переулок, дом 15/5",20,37.5983536181483,55.75059067583209,"{type=Point, coordinates=[37.598353618148295, 55.750590675832086]}",Маленький
9,20,Кафе,637377295,кафе,Восточный административный округ,район Гольяново,"город Москва, Алтайская улица, дом 33/7",30,37.8316832687996,55.820792834222495,"{type=Point, coordinates=[37.8316832687996, 55.8207928342225]}",Маленький
10,21,КАФЕ УЮТ,637377318,кафе,Северо-Восточный административный округ,район Отрадное,"город Москва, Алтуфьевское шоссе, дом 14",110,37.585832175270156,55.85575028944078,"{type=Point, coordinates=[37.58583217527016, 55.85575028944077]}",Большой
11,22,Долина Чайхона,637377401,кафе,Северо-Восточный административный округ,район Отрадное,"город Москва, Алтуфьевское шоссе, дом 14",150,37.5858265787149,55.85566444982221,"{type=Point, coordinates=[37.5858265787149, 55.8556644498222]}",Большой
12,24,Кафетерий,637377476,кафе,Северо-Восточный административный округ,Алтуфьевский район,"город Москва, Алтуфьевское шоссе, дом 56",6,37.58783336201571,55.88080528015208,"{type=Point, coordinates=[37.58783336201571, 55.88080528015208]}",Маленький
13,25,Домино'с Пицца,637377497,кафе,Северо-Восточный административный округ,Алтуфьевский район,"город Москва, Алтуфьевское шоссе, дом 56",24,37.5877238646826,55.88078223099111,"{type=Point, coordinates=[37.5877238646826, 55.8807822309911]}",Маленький
14,30,Мархал,637377767,кафе,Северный административный округ,район Западное Дегунино,"город Москва, Ангарская улица, дом 1, корпус 2",120,37.509799183894344,55.871792173832816,"{type=Point, coordinates=[37.50979918389434, 55.87179217383281]}",Большой
15,33,Кафе «Хинкальная»,637377862,кафе,Южный административный округ,район Нагатино-Садовники,"город Москва, проспект Андропова, дом 26",45,37.663094960314105,55.68051266827809,"{type=Point, coordinates=[37.6630949603141, 55.6805126682781]}",Средний
16,34,Суши Wok,637377924,кафе,Южный административный округ,район Нагатино-Садовники,"город Москва, проспект Андропова, дом 30",4,37.662706040007905,55.6788166451702,"{type=Point, coordinates=[37.6627060400079, 55.6788166451702]}",Маленький
17,35,Емеля,637377977,кафе,Южный административный округ,район Нагатинский Затон,"город Москва, проспект Андропова, дом 35А",45,37.666266893105906,55.67396575768211,"{type=Point, coordinates=[37.66626689310591, 55.67396575768212]}",Средний
18,38,Му-Му,637378096,кафе,Центральный административный округ,район Арбат,"город Москва, улица Арбат, дом 4, строение 1",125,37.5990156320594,55.752164264713706,"{type=Point, coordinates=[37.5990156320594, 55.752164264713706]}",Большой
19,39,Хлеб насущный,637378160,кафе,Центральный административный округ,район Арбат,"город Москва, улица Арбат, дом 6/2",20,37.597493060865006,55.75171555227066,"{type=Point, coordinates=[37.597493060865006, 55.75171555227067]}",Маленький
20,41,Калифорния Дайнер,637378396,кафе,Центральный административный округ,район Арбат,"город Москва, улица Арбат, дом 23, строение 1",150,37.59533357004987,55.75042750767098,"{type=Point, coordinates=[37.595333570049874, 55.750427507670985]}",Большой
21,42,Балалаечная,637378422,кафе,Центральный административный округ,район Арбат,"город Москва, улица Арбат, дом 23, строение 1",49,37.59533357004987,55.75042750767098,"{type=Point, coordinates=[37.595333570049874, 55.750427507670985]}",Средний
22,43,Пиросмани,637378476,кафе,Центральный административный округ,район Арбат,"город Москва, улица Арбат, дом 25/36",63,37.59452428684779,55.7501448210987,"{type=Point, coordinates=[37.5945242868478, 55.7501448210987]}",Средний
23,44,ДАНКИН ДОНАТС,637378544,кафе,Центральный административный округ,район Арбат,"город Москва, улица Арбат, дом 25/36",64,37.5945672021928,55.7501357637694,"{type=Point, coordinates=[37.5945672021928, 55.7501357637694]}",Средний
24,45,Вареничная №1,637378579,кафе,Центральный административный округ,район Арбат,"город Москва, улица Арбат, дом 29",120,37.59294714794591,55.7497161051646,"{type=Point, coordinates=[37.5929471479459, 55.7497161051646]}",Большой
25,46,ШОКОЛАДНИЦА,637378606,кафе,Центральный административный округ,район Арбат,"город Москва, улица Арбат, дом 29",40,37.593548890650894,55.74987471472409,"{type=Point, coordinates=[37.593548890650894, 55.74987471472409]}",Средний
26,48,Теремок,637378634,кафе,Центральный административный округ,район Арбат,"город Москва, улица Арбат, дом 32",22,37.58955386857085,55.74914410606775,"{type=Point, coordinates=[37.589553868570846, 55.74914410606775]}",Маленький
27,49,Хлеб Насущный,637378710,кафе,Центральный административный округ,район Арбат,"город Москва, улица Арбат, дом 32",40,37.589620584008,55.74911613754149,"{type=Point, coordinates=[37.58962058400799, 55.74911613754149]}",Средний
28,50,Мосбург,637378737,кафе,Центральный административный округ,район Арбат,"город Москва, улица Арбат, дом 36/2, строение 1",30,37.588485999999996,55.74886975534292,"{type=Point, coordinates=[37.588485999999996, 55.74886975534292]}",Маленький
29,52,Домашняя снедь,637378790,кафе,Центральный административный округ,район Арбат,"город Москва, улица Арбат, дом 36/2, строение 1",56,37.5888682527611,55.7488371155641,"{type=Point, coordinates=[37.5888682527611, 55.7488371155641]}",Средний
30,53,Хинкальная,637378792,кафе,Центральный административный округ,район Арбат,"город Москва, улица Арбат, дом 36/2, строение 1",38,37.58885493178318,55.74882523170413,"{type=Point, coordinates=[37.58885493178318, 55.748825231704124]}",Средний
31,59,Шантимель,637379141,кафе,Центральный административный округ,Мещанский район,"город Москва, Астраханский переулок, дом 1/15",20,37.63991142119728,55.77744814409546,"{type=Point, coordinates=[37.63991142119727, 55.777448144095466]}",Маленький
32,64,КАРЛ БАЛЕНГ,637379364,кафе,Юго-Западный административный округ,Академический район,"город Москва, улица Ивана Бабушкина, дом 17, корпус 1",46,37.561028860670596,55.684662813221905,"{type=Point, coordinates=[37.5610288606706, 55.6846628132219]}",Средний
33,66,Старый дворик,637379461,кафе,Восточный административный округ,район Гольяново,"город Москва, Байкальская улица, дом 31",50,37.808323803752714,55.81759637356009,"{type=Point, coordinates=[37.8083238037527, 55.8175963735601]}",Средний
34,67,Пивной погребок,637379523,кафе,Южный административный округ,район Царицыно,"город Москва, Бакинская улица, дом 29",15,37.66038001579207,55.61810177708225,"{type=Point, coordinates=[37.660380015792065, 55.61810177708225]}",Маленький
35,72,Кафе-бар Альбом,637379761,кафе,Центральный административный округ,Басманный район,"город Москва, Новая Басманная улица, дом 12, строение 2",80,37.65721287594369,55.7690579759236,"{type=Point, coordinates=[37.6572128759437, 55.7690579759236]}",Большой
36,73,Шоколадница,637379839,кафе,Центральный административный округ,Басманный район,"город Москва, Бауманская улица, дом 33/2, строение 1",48,37.678681276899106,55.7730289955539,"{type=Point, coordinates=[37.6786812768991, 55.7730289955539]}",Средний
37,74,МУ-МУ,637379891,кафе,Центральный административный округ,Басманный район,"город Москва, Бауманская улица, дом 35/1",160,37.678960226637,55.771586681103294,"{type=Point, coordinates=[37.678960226637, 55.7715866811033]}",Большой
38,75,Кальянный клуб Дымок Уголек,637379893,кафе,Центральный административный округ,район Замоскворечье,"город Москва, Татарская улица, дом 14",30,37.637574004125156,55.7339144144126,"{type=Point, coordinates=[37.637574004125156, 55.7339144144126]}",Маленький
39,76,Домино'с Пицца,637379944,кафе,Северный административный округ,Савёловский район,"город Москва, Башиловская улица, дом 3, корпус 1",10,37.576436242838476,55.79421079841326,"{type=Point, coordinates=[37.576436242838476, 55.79421079841326]}",Маленький
40,77,Хинкальная City,637380018,кафе,Северный административный округ,Савёловский район,"город Москва, Башиловская улица, дом 19",50,37.575313311,55.799923164000006,"{type=Point, coordinates=[37.575313311, 55.799923164000006]}",Средний
41,79,Хинкальный дом Колхида,637380076,кафе,Северный административный округ,район Беговой,"город Москва, Беговая улица, дом 7",47,37.55612,55.778380999,"{type=Point, coordinates=[37.55612, 55.778380999]}",Средний
42,80,Глав Пирог,637380187,кафе,Северный административный округ,район Беговой,"город Москва, Беговая улица, дом 17, корпус 1",30,37.559852786074316,55.78177895431193,"{type=Point, coordinates=[37.55985278607431, 55.78177895431193]}",Маленький
43,85,КРУЖКА,637380402,кафе,Западный административный округ,район Дорогомилово,"город Москва, Бережковская набережная, дом 8",32,37.56627366325417,55.7394658905064,"{type=Point, coordinates=[37.566273663254165, 55.7394658905064]}",Средний
44,86,ПОСТ СКРИПТУМ,637380468,кафе,Западный административный округ,район Дорогомилово,"город Москва, Бережковская набережная, дом 14",48,37.563610635821696,55.737237925776704,"{type=Point, coordinates=[37.5636106358217, 55.7372379257767]}",Средний
45,87,КАФЕ «CIAO BELLA»,637380495,кафе,Северо-Западный административный округ,район Щукино,"город Москва, улица Берзарина, дом 8",110,37.4822792039938,55.7909056420408,"{type=Point, coordinates=[37.4822792039938, 55.7909056420408]}",Большой
46,91,Жигулевское,637380653,кафе,Северо-Восточный административный округ,Алтуфьевский район,"город Москва, Бибиревская улица, дом 7, корпус 1",50,37.593086359766026,55.880243422307345,"{type=Point, coordinates=[37.59308635976602, 55.88024342230735]}",Средний
47,92,КАФЕ «У ТРЕХ СЕСТЕР»,637380705,кафе,Северо-Западный административный округ,район Щукино,"город Москва, улица Маршала Бирюзова, дом 4, корпус 1",60,37.4995633588858,55.79077293982049,"{type=Point, coordinates=[37.4995633588858, 55.7907729398205]}",Средний
48,94,Чайникофф,637380798,кафе,Северо-Западный административный округ,район Щукино,"город Москва, улица Маршала Бирюзова, дом 9",30,37.496317635677975,55.791469772292224,"{type=Point, coordinates=[37.49631763567798, 55.79146977229223]}",Маленький
49,96,КАФЕ «ЛУКУМ»,637380828,кафе,Северо-Западный административный округ,район Щукино,"город Москва, улица Маршала Бирюзова, дом 12",35,37.49438272217945,55.793594661729024,"{type=Point, coordinates=[37.49438272217944, 55.793594661729024]}",Средний
50,98,Кафе ХИНКАЛЬНАЯ,637380903,кафе,Северо-Западный административный округ,район Щукино,"город Москва, улица Маршала Бирюзова, дом 16",40,37.491709793339744,55.794761269861915,"{type=Point, coordinates=[37.491709793339744, 55.79476126986192]}",Средний
51,100,СУШИ ВОК,637381021,кафе,Северо-Западный административный округ,район Щукино,"город Москва, улица Маршала Бирюзова, дом 19",6,37.491143,55.794366000000004,"{type=Point, coordinates=[37.491143, 55.794366]}",Маленький
52,102,ТРАТТОРИЯ,637381124,кафе,Северо-Западный административный округ,район Щукино,"город Москва, улица Маршала Бирюзова, дом 22, корпус 1",45,37.48947825298951,55.79602036487129,"{type=Point, coordinates=[37.4894782529895, 55.7960203648713]}",Средний
53,103,СУШИ STORE,637381144,кафе,Северо-Западный административный округ,район Щукино,"город Москва, улица Маршала Бирюзова, дом 28",6,37.487013236604966,55.79737074441674,"{type=Point, coordinates=[37.487013236604966, 55.797370744416746]}",Маленький
54,104,БУЛОЧНАЯ № 5,637381197,кафе,Северо-Западный административный округ,район Щукино,"город Москва, улица Маршала Бирюзова, дом 28",10,37.487013236604966,55.79737074441674,"{type=Point, coordinates=[37.487013236604966, 55.797370744416746]}",Маленький
55,105,Идилия,637381205,кафе,Восточный административный округ,район Богородское,"город Москва, Бойцовая улица, дом 17, корпус 1",92,37.7181630996081,55.811687574342606,"{type=Point, coordinates=[37.7181630996081, 55.8116875743426]}",Большой
56,109,СТОЛОВАЯ РГТУ МТКП,637381393,кафе,Северо-Восточный административный округ,район Марфино,"город Москва, Ботаническая улица, дом 11",60,37.60160681099724,55.825197825106315,"{type=Point, coordinates=[37.60160681099724, 55.82519782510632]}",Средний
57,110,Хочу на дачу,637381438,кафе,Северный административный округ,район Беговой,"город Москва, 1-й Боткинский проезд, дом 2/6",50,37.55643137063551,55.7811413416017,"{type=Point, coordinates=[37.5564313706355, 55.7811413416017]}",Средний
58,111,КАФЕ «СТАРЫЙ БАТУМЪ»,637381465,кафе,Северо-Западный административный округ,район Щукино,"город Москва, улица Академика Бочвара, дом 7, корпус 1",70,37.461669109923506,55.80603073182839,"{type=Point, coordinates=[37.4616691099235, 55.8060307318284]}",Средний
59,113,Кафе Русский «водочный» дом,637381570,кафе,Северо-Восточный административный округ,Останкинский район,"город Москва, улица Бочкова, дом 5",30,37.6339022672251,55.810003239689706,"{type=Point, coordinates=[37.6339022672251, 55.8100032396897]}",Маленький
60,114,Виктория,637381621,кафе,Центральный административный округ,Тверской район,"город Москва, 2-я Брестская улица, дом 24/15",98,37.58862471654232,55.772349304882184,"{type=Point, coordinates=[37.58862471654232, 55.77234930488219]}",Большой
61,115,Вареничная №1,637381623,кафе,Центральный административный округ,Пресненский район,"город Москва, 2-я Брестская улица, дом 43",75,37.583870552642004,55.77454367001229,"{type=Point, coordinates=[37.583870552642, 55.7745436700123]}",Средний
62,119,Пиццерия «АКАДЕМИЯ»,637381780,кафе,Центральный административный округ,Пресненский район,"город Москва, Большая Бронная улица, дом 2/6",43,37.597496340796496,55.7600158552018,"{type=Point, coordinates=[37.5974963407965, 55.7600158552018]}",Средний
63,120,Чебуречная СССР,637381833,кафе,Центральный административный округ,Тверской район,"город Москва, Большая Бронная улица, дом 27/4",54,37.60256453956346,55.76413495977434,"{type=Point, coordinates=[37.60256453956347, 55.764134959774346]}",Средний
64,122,Пай поинт,637381937,кафе,Центральный административный округ,Тверской район,"город Москва, Большая Бронная улица, дом 27/4",20,37.60256453956346,55.76413495977434,"{type=Point, coordinates=[37.60256453956347, 55.764134959774346]}",Маленький
65,124,"Кафе «Есть Хинкали, пить Вино»",637381990,кафе,Центральный административный округ,Пресненский район,"город Москва, Малая Бронная улица, дом 4",40,37.59745155026575,55.75958040134781,"{type=Point, coordinates=[37.59745155026576, 55.7595804013478]}",Средний
66,125,Кафе «Лаффа Лаффа»,637381991,кафе,Центральный административный округ,Пресненский район,"город Москва, Малая Бронная улица, дом 4",24,37.59745155026575,55.75958040134781,"{type=Point, coordinates=[37.59745155026576, 55.7595804013478]}",Маленький
67,128,Кафе «Эстетик»,637382250,кафе,Центральный административный округ,Пресненский район,"город Москва, Малая Бронная улица, дом 20, строение 1",25,37.59574137990512,55.762347516686994,"{type=Point, coordinates=[37.59574137990511, 55.762347516686994]}",Маленький
68,129,Кафе «AVOCADO QUEEN»,637382252,кафе,Центральный административный округ,Пресненский район,"город Москва, Малая Бронная улица, дом 20, строение 1",40,37.59576979062151,55.7623448082724,"{type=Point, coordinates=[37.59576979062151, 55.762344808272395]}",Средний
69,132,Grand Cru,637382410,кафе,Центральный административный округ,Пресненский район,"город Москва, Малая Бронная улица, дом 22, строение 1",45,37.595146,55.762784999,"{type=Point, coordinates=[37.595146, 55.762784999]}",Средний
70,133,Кафе «Ladure»,637382461,кафе,Центральный административный округ,Пресненский район,"город Москва, Малая Бронная улица, дом 27/14",14,37.59397881001305,55.76340164270341,"{type=Point, coordinates=[37.59397881001305, 55.76340164270341]}",Маленький
71,135,Бильярдный Бар-клуб Полковник и Байрон,637382564,кафе,Восточный административный округ,район Соколиная Гора,"город Москва, проспект Будённого, дом 1/1",10,37.721607349974896,55.778502063157205,"{type=Point, coordinates=[37.7216073499749, 55.7785020631572]}",Маленький
72,136,Пиццерия «Питто»,637382672,кафе,Восточный административный округ,район Соколиная Гора,"город Москва, проспект Будённого, дом 24, корпус 1",20,37.731907032592204,55.765152946663896,"{type=Point, coordinates=[37.7319070325922, 55.7651529466639]}",Маленький
73,137,Кафе «БИРЮСА»,637382750,кафе,Южный административный округ,район Бирюлёво Западное,"город Москва, Булатниковская улица, дом 5, корпус 4",20,37.65135493145689,55.5785369067325,"{type=Point, coordinates=[37.6513549314569, 55.5785369067325]}",Маленький
74,139,Шоколадница,637382830,кафе,Северный административный округ,Савёловский район,"город Москва, Бутырская улица, дом 7",25,37.58387830286944,55.79436893666154,"{type=Point, coordinates=[37.58387830286943, 55.79436893666154]}",Маленький
75,141,Финист,637382908,кафе,Северный административный округ,Савёловский район,"город Москва, Бутырская улица, дом 11",95,37.5833655849056,55.795811583988105,"{type=Point, coordinates=[37.5833655849056, 55.7958115839881]}",Большой
76,143,KVARTA,637382951,кафе,Северо-Восточный административный округ,Бутырский район,"город Москва, Бутырская улица, дом 84",38,37.582556270224316,55.806407577902405,"{type=Point, coordinates=[37.5825562702243, 55.8064075779024]}",Средний
77,146,PIZZA HUT,637383145,кафе,Юго-Западный административный округ,Гагаринский район,"город Москва, улица Вавилова, дом 72/13",10,37.54762932407576,55.68137658803453,"{type=Point, coordinates=[37.54762932407576, 55.68137658803454]}",Маленький
78,148,Радэа,637383223,кафе,Юго-Западный административный округ,Ломоносовский район,"город Москва, Нахимовский проспект, владение 75А",7,37.55272003804525,55.68345394203145,"{type=Point, coordinates=[37.55272003804524, 55.68345394203145]}",Маленький
79,149,Кофейня Даблби,637383255,кафе,Центральный административный округ,район Замоскворечье,"город Москва, Валовая улица, дом 2-4/44, строение 1",20,37.635314,55.731221999999995,"{type=Point, coordinates=[37.635314, 55.731222]}",Маленький
80,150,Сабвей,637383276,кафе,Центральный административный округ,район Замоскворечье,"город Москва, Валовая улица, дом 6",22,37.63389514799414,55.731080251993674,"{type=Point, coordinates=[37.63389514799414, 55.73108025199366]}",Маленький
81,151,ресторан «Якитория»,637383376,кафе,Центральный административный округ,район Замоскворечье,"город Москва, Валовая улица, дом 8/18",124,37.631527827813905,55.730831022576844,"{type=Point, coordinates=[37.63152782781391, 55.730831022576844]}",Большой
82,152,кафе Баловень,637383381,кафе,Центральный административный округ,район Замоскворечье,"город Москва, Валовая улица, дом 11/19",35,37.63242856912604,55.730236442661855,"{type=Point, coordinates=[37.63242856912604, 55.73023644266186]}",Средний
83,153,Советские времена,637383427,кафе,Центральный административный округ,Мещанский район,"город Москва, Варсонофьевский переулок, дом 6",45,37.625946796859296,55.763196752898395,"{type=Point, coordinates=[37.6259467968593, 55.7631967528984]}",Средний
84,154,Кафе «Андерсон»,637383434,кафе,Южный административный округ,Донской район,"город Москва, Варшавское шоссе, дом 2",150,37.620335663765886,55.70060108067466,"{type=Point, coordinates=[37.62033566376587, 55.700601080674666]}",Большой
85,155,Кафе «Subway»,637383460,кафе,Южный административный округ,Донской район,"город Москва, Варшавское шоссе, дом 7, корпус 1",36,37.622412630846405,55.7008837507207,"{type=Point, coordinates=[37.62241263084641, 55.7008837507207]}",Средний
86,156,Кафе «Ламаджо»,637383589,кафе,Южный административный округ,Донской район,"город Москва, Варшавское шоссе, дом 29",30,37.622105806164065,55.693234303514785,"{type=Point, coordinates=[37.62210580616406, 55.693234303514785]}",Маленький
87,158,Свежие продукты «Пицца»,637383624,кафе,Южный административный округ,Нагорный район,"город Москва, Варшавское шоссе, дом 100",2,37.61897519230842,55.64596782638956,"{type=Point, coordinates=[37.618975192308426, 55.64596782638956]}",Маленький
88,159,Ресторан «Макдоналдс»,637383695,кафе,Южный административный округ,район Чертаново Южное,"город Москва, Варшавское шоссе, дом 143А",70,37.59921555727577,55.583940322658684,"{type=Point, coordinates=[37.59921555727577, 55.58394032265867]}",Средний
89,164,Кофе «Кофе собой»,637383901,кафе,Центральный административный округ,Пресненский район,"город Москва, Васильевская улица, дом 2, корпус 1",10,37.58577270069652,55.76983755434797,"{type=Point, coordinates=[37.58577270069653, 55.76983755434797]}",Маленький
90,165,Кафе «КАЛИНКА-Д»,637384009,кафе,Центральный административный округ,Пресненский район,"город Москва, Васильевская улица, дом 4",98,37.587149304679286,55.7709711164292,"{type=Point, coordinates=[37.5871493046793, 55.7709711164292]}",Большой
91,169,Пироговая Рогова,637384262,кафе,Юго-Западный административный округ,Гагаринский район,"город Москва, проспект Вернадского, дом 9/10",42,37.53220694806775,55.69057839899543,"{type=Point, coordinates=[37.53220694806775, 55.69057839899542]}",Средний
92,170,Кафе контдитерская Кузина,637384323,кафе,Юго-Западный административный округ,Ломоносовский район,"город Москва, проспект Вернадского, дом 11/19",5,37.52916678031804,55.68886806281346,"{type=Point, coordinates=[37.529166780318036, 55.68886806281347]}",Маленький
93,171,Суши WoK,637384336,кафе,Юго-Западный административный округ,Ломоносовский район,"город Москва, проспект Вернадского, дом 11/19",8,37.52916678031804,55.68886806281346,"{type=Point, coordinates=[37.529166780318036, 55.68886806281347]}",Маленький
94,172,Аморе,637384376,кафе,Юго-Западный административный округ,Ломоносовский район,"город Москва, проспект Вернадского, дом 11/19",10,37.52916678031804,55.68886806281346,"{type=Point, coordinates=[37.529166780318036, 55.68886806281347]}",Маленький
95,173,Шоколад,637384383,кафе,Юго-Западный административный округ,Ломоносовский район,"город Москва, проспект Вернадского, дом 11/19",50,37.529623,55.689188,"{type=Point, coordinates=[37.529623, 55.689188]}",Средний
96,175,Кафе 35,637384513,кафе,Юго-Западный административный округ,Ломоносовский район,"город Москва, улица Кравченко, дом 24/35",40,37.513428999999995,55.679914000000004,"{type=Point, coordinates=[37.513429, 55.679914]}",Средний
97,180,Кафе «Пекарня «Мюнгер»»,637384718,кафе,Западный административный округ,район Тропарёво-Никулино,"город Москва, проспект Вернадского, дом 97, корпус 1",40,37.4909802590976,55.6674481430433,"{type=Point, coordinates=[37.4909802590976, 55.6674481430433]}",Средний
98,181,ГудБар,637384745,кафе,Западный административный округ,район Тропарёво-Никулино,"город Москва, проспект Вернадского, дом 97, корпус 1",40,37.49065842495671,55.66741818831039,"{type=Point, coordinates=[37.4906584249567, 55.6674181883104]}",Средний
99,183,Кафе «ТЕАТР НА ЮГО-ЗАПАДЕ»,637384823,кафе,Западный административный округ,район Тропарёво-Никулино,"город Москва, проспект Вернадского, дом 125",20,37.481195591552,55.6555685020109,"{type=Point, coordinates=[37.481195591552, 55.6555685020109]}",Маленький
100,184,Угол,637384849,кафе,Северный административный округ,район Беговой,"город Москва, Верхняя улица, дом 3, корпус 2",71,37.5749800416635,55.776623502197296,"{type=Point, coordinates=[37.5749800416635, 55.7766235021973]}",Средний
101,188,МАРИНА,637384980,кафе,Северо-Восточный административный округ,Ярославский район,"город Москва, улица Вешних Вод, дом 8, корпус 2",90,37.699785385309205,55.8595184059192,"{type=Point, coordinates=[37.6997853853092, 55.8595184059192]}",Большой
102,189,Кафе-бар «Караоке MyzOn»,637385007,кафе,Восточный административный округ,район Вешняки,"город Москва, Вешняковская улица, дом 2",32,37.81995151285953,55.737569834466285,"{type=Point, coordinates=[37.81995151285954, 55.737569834466285]}",Средний
103,194,Пицца Фабрика,637385206,кафе,Восточный административный округ,район Перово,"город Москва, 1-я Владимирская улица, дом 14",18,37.774975911682574,55.75700016661589,"{type=Point, coordinates=[37.77497591168257, 55.75700016661588]}",Маленький
104,200,Subway,637385485,кафе,Восточный административный округ,район Перово,"город Москва, 2-я Владимирская улица, дом 36",14,37.78354765696985,55.75099284776306,"{type=Point, coordinates=[37.78354765696985, 55.75099284776306]}",Маленький
105,202,Домино'с Пицца,637385610,кафе,Восточный административный округ,район Перово,"город Москва, 2-я Владимирская улица, дом 52, корпус 2",18,37.78670743715204,55.74617739715479,"{type=Point, coordinates=[37.78670743715204, 55.74617739715479]}",Маленький
106,203,Домино'с Пицца,637385641,кафе,Восточный административный округ,район Перово,"город Москва, 3-я Владимирская улица, дом 6",8,37.7847958491833,55.762166605646584,"{type=Point, coordinates=[37.784795849183304, 55.76216660564658]}",Маленький
107,209,Хинкальная,637385926,кафе,Юго-Западный административный округ,район Коньково,"город Москва, улица Академика Волгина, дом 29, корпус 1",80,37.5080353979794,55.64371359572547,"{type=Point, coordinates=[37.5080353979794, 55.64371359572547]}",Большой
108,211,Кафе «Якитория»,637386051,кафе,Центральный административный округ,Таганский район,"город Москва, Волгоградский проспект, дом 15",158,37.6770438528807,55.7294040645839,"{type=Point, coordinates=[37.6770438528807, 55.7294040645839]}",Большой
109,213,Кафе «Чебурекас»,637386099,кафе,Центральный административный округ,Таганский район,"город Москва, Волгоградский проспект, дом 17, строение 1",65,37.67999019489951,55.7293376078054,"{type=Point, coordinates=[37.6799901948995, 55.7293376078054]}",Средний
110,220,Кружка,637386397,кафе,Северный административный округ,район Сокол,"город Москва, Волоколамское шоссе, дом 3",45,37.502665895190304,55.806947298940706,"{type=Point, coordinates=[37.5026658951903, 55.8069472989407]}",Средний
111,221,ПРО кафе,637386399,кафе,Северный административный округ,район Сокол,"город Москва, Волоколамское шоссе, дом 13",48,37.495947741133904,55.80735118447009,"{type=Point, coordinates=[37.4959477411339, 55.8073511844701]}",Средний
112,223,Чебуречная СССР,637386509,кафе,Северный административный округ,район Сокол,"город Москва, Волоколамское шоссе, дом 15/22",60,37.493651770217205,55.8087560004337,"{type=Point, coordinates=[37.4936517702172, 55.8087560004337]}",Средний
113,226,IL PIZZAIOLO,637386696,кафе,Центральный административный округ,район Хамовники,"город Москва, улица Волхонка, дом 6",50,37.60862541348701,55.7485492763152,"{type=Point, coordinates=[37.608625413487, 55.7485492763152]}",Средний
114,227,Профит,637386713,кафе,Центральный административный округ,район Хамовники,"город Москва, улица Волхонка, дом 7/6",40,37.608238862049696,55.7473126410773,"{type=Point, coordinates=[37.6082388620497, 55.7473126410773]}",Средний
115,229,Эко-Няма,637386767,кафе,Центральный административный округ,Таганский район,"город Москва, Воронцовская улица, дом 13/14, строение 3",8,37.6664718614642,55.739331891086714,"{type=Point, coordinates=[37.6664718614642, 55.7393318910867]}",Маленький
116,230,Кафе «Верона»,637386818,кафе,Центральный административный округ,Таганский район,"город Москва, Воронцовская улица, дом 36, строение 1",55,37.661599,55.73436980362591,"{type=Point, coordinates=[37.661599, 55.7343698036259]}",Средний
117,231,Французская пекарня,637386869,кафе,Центральный административный округ,Таганский район,"город Москва, Воронцовская улица, дом 48",25,37.663851595295675,55.73259210007719,"{type=Point, coordinates=[37.66385159529566, 55.73259210007719]}",Маленький
118,232,Кафе «Subway»,637386896,кафе,Центральный административный округ,Таганский район,"город Москва, Воронцовская улица, дом 48",42,37.6639183984826,55.73282336381761,"{type=Point, coordinates=[37.6639183984826, 55.7328233638176]}",Средний
119,233,Тирольские пироги,637386922,кафе,Центральный административный округ,Таганский район,"город Москва, Воронцовская улица, дом 48",30,37.663851595295675,55.73259210007719,"{type=Point, coordinates=[37.66385159529566, 55.73259210007719]}",Маленький
120,234,ООО «ТЕАТРО»,637386933,кафе,Центральный административный округ,Тверской район,"город Москва, Воротниковский переулок, дом 11, строение 1",35,37.601475375411,55.7703887962695,"{type=Point, coordinates=[37.601475375411, 55.7703887962695]}",Средний
121,235,Ресторан «Балзи Росси»,637386976,кафе,Центральный административный округ,Пресненский район,"город Москва, Кудринская площадь, дом 1",100,37.5810151367724,55.75933818171371,"{type=Point, coordinates=[37.5810151367724, 55.7593381817137]}",Большой
122,236,Кофе Хаус,637387030,кафе,Центральный административный округ,Пресненский район,"город Москва, Кудринская площадь, дом 1",70,37.580796741110504,55.7596478207301,"{type=Point, coordinates=[37.5807967411105, 55.7596478207301]}",Средний
123,237,Шоколадница,637387080,кафе,Центральный административный округ,Пресненский район,"город Москва, Кудринская площадь, дом 1",50,37.5810426354287,55.759556188202495,"{type=Point, coordinates=[37.5810426354287, 55.7595561882025]}",Средний
124,238,Кафе «Кондитерская Олега Ильина»,637387132,кафе,Центральный административный округ,Пресненский район,"город Москва, Кудринская площадь, дом 1",45,37.58082940186447,55.75914810521364,"{type=Point, coordinates=[37.58082940186447, 55.75914810521364]}",Средний
125,240,Хинкала,637387290,кафе,Северный административный округ,район Аэропорт,"город Москва, улица 8 Марта, дом 15",48,37.54984404907329,55.80505694468031,"{type=Point, coordinates=[37.5498440490733, 55.8050569446803]}",Средний
126,241,СУЩЕВСКИЙ ДВОРИК,637387331,кафе,Северо-Восточный административный округ,район Марьина Роща,"город Москва, 2-й Вышеславцев переулок, дом 17",48,37.606621744631745,55.79040906869752,"{type=Point, coordinates=[37.60662174463174, 55.79040906869751]}",Средний
127,243,Кофейня Авеню,637387499,кафе,Северо-Восточный административный округ,Алексеевский район,"город Москва, улица Бориса Галушкина, дом 10",38,37.653104495622024,55.82426253768963,"{type=Point, coordinates=[37.653104495622024, 55.82426253768963]}",Средний
128,252,Кафе «PRIME CAFE»,637387784,кафе,Центральный административный округ,Пресненский район,"город Москва, Большая Никитская улица, дом 24/1, строение 1",80,37.601423302089756,55.75730102173136,"{type=Point, coordinates=[37.60142330208976, 55.75730102173136]}",Большой
129,253,Шоколадница,637387840,кафе,Центральный административный округ,Пресненский район,"город Москва, Большая Никитская улица, дом 24/1, строение 1",50,37.6053925977776,55.7567742226206,"{type=Point, coordinates=[37.6053925977776, 55.7567742226206]}",Средний
130,254,Кафе «Лавка и кафе студии Лебедева»,637387867,кафе,Центральный административный округ,Пресненский район,"город Москва, Большая Никитская улица, дом 35",30,37.595079808184146,55.75722070894746,"{type=Point, coordinates=[37.595079808184146, 55.75722070894746]}",Маленький
131,255,КОТИКИЛЮДИ,637387888,кафе,Центральный административный округ,Мещанский район,"город Москва, улица Гиляровского, дом 17",40,37.63018152466349,55.77658283326817,"{type=Point, coordinates=[37.630181524663485, 55.776582833268186]}",Средний
132,256,Шантимель,637387920,кафе,Центральный административный округ,Мещанский район,"город Москва, улица Гиляровского, дом 60, строение 1",20,37.63303984171875,55.78747104686978,"{type=Point, coordinates=[37.63303984171875, 55.787471046869776]}",Маленький
133,258,ХачапуриТверскя,637388050,кафе,Центральный административный округ,Тверской район,"город Москва, Большой Гнездниковский переулок, дом 10",76,37.605514157145,55.7634073870805,"{type=Point, coordinates=[37.605514157145, 55.7634073870805]}",Большой
134,259,Get Lucky,637388076,кафе,Центральный административный округ,Тверской район,"город Москва, Малый Гнездниковский переулок, дом 9, строение 7",30,37.60673218161883,55.76295403573571,"{type=Point, coordinates=[37.60673218161883, 55.76295403573571]}",Маленький
135,261,МУ-МУ,637388169,кафе,Центральный административный округ,Тверской район,"город Москва, Малый Гнездниковский переулок, дом 9, строение 7",120,37.606685422193905,55.7628402244174,"{type=Point, coordinates=[37.6066854221939, 55.7628402244174]}",Большой
136,263,Хинкальная,637388208,кафе,Центральный административный округ,район Арбат,"город Москва, Гоголевский бульвар, дом 23",30,37.59924048574482,55.748058639825274,"{type=Point, coordinates=[37.59924048574483, 55.748058639825274]}",Маленький
137,264,Чемодан,637388247,кафе,Центральный административный округ,район Арбат,"город Москва, Гоголевский бульвар, дом 25, строение 1",50,37.5993338984116,55.748481539418975,"{type=Point, coordinates=[37.59933389841159, 55.748481539418975]}",Средний
138,265,Кулинарная Лавка Братьев Караваевых Братья Караваевы,637388293,кафе,Центральный административный округ,район Арбат,"город Москва, Гоголевский бульвар, дом 33/1",50,37.59958837883629,55.75078722934865,"{type=Point, coordinates=[37.59958837883629, 55.75078722934865]}",Средний
139,270,Хлеб и Вино,637388548,кафе,Центральный административный округ,Тверской район,"город Москва, Тверская улица, дом 12, строение 2",65,37.60756974501491,55.76383891347661,"{type=Point, coordinates=[37.607569745014914, 55.76383891347662]}",Средний
140,271,Бирхаус,637388626,кафе,Центральный административный округ,Тверской район,"город Москва, Тверская улица, дом 12, строение 7",56,37.6085926679442,55.764219484149294,"{type=Point, coordinates=[37.6085926679442, 55.7642194841493]}",Средний
141,272,С утра,637388678,кафе,Центральный административный округ,Тверской район,"город Москва, Тверская улица, дом 12, строение 8",48,37.60913775124604,55.76407587211709,"{type=Point, coordinates=[37.60913775124604, 55.76407587211709]}",Средний
142,273,Вареничная № 1,637388679,кафе,Центральный административный округ,Тверской район,"город Москва, Тверская улица, дом 14",78,37.607084496611684,55.76427806355792,"{type=Point, coordinates=[37.60708449661168, 55.76427806355792]}",Большой
143,275,LUNCHROOM,637388732,кафе,Центральный административный округ,Тверской район,"город Москва, Тверская улица, дом 15",20,37.60792869285984,55.76230136309129,"{type=Point, coordinates=[37.60792869285984, 55.76230136309129]}",Маленький
144,276,Прайм,637388784,кафе,Центральный административный округ,Тверской район,"город Москва, Тверская улица, дом 15",20,37.60843704569781,55.761915994385596,"{type=Point, coordinates=[37.60843704569781, 55.76191599438558]}",Маленький
145,277,Пицца Экспресс,637388810,кафе,Центральный административный округ,Тверской район,"город Москва, Тверская улица, дом 17",70,37.6068666140572,55.763326983949796,"{type=Point, coordinates=[37.6068666140572, 55.7633269839498]}",Средний
146,279,Шоколадница Кофе Хаус,637388857,кафе,Центральный административный округ,Тверской район,"город Москва, Тверская улица, дом 17",60,37.60651277527071,55.76359372308661,"{type=Point, coordinates=[37.6065127752707, 55.7635937230866]}",Средний
147,281,Шоколадница,637388935,кафе,Центральный административный округ,Тверской район,"город Москва, Тверская улица, дом 19",48,37.603570196203606,55.7654553424664,"{type=Point, coordinates=[37.6035701962036, 55.7654553424664]}",Средний
148,282,Прайм,637388993,кафе,Центральный административный округ,Тверской район,"город Москва, Тверская улица, дом 19А",41,37.602768223396005,55.76581113676809,"{type=Point, coordinates=[37.60276822339601, 55.76581113676809]}",Средний
149,285,АВ-Дейли,637389100,кафе,Центральный административный округ,Тверской район,"город Москва, Тверская улица, дом 27, строение 2",8,37.59755043503548,55.7686472337689,"{type=Point, coordinates=[37.59755043503548, 55.7686472337689]}",Маленький
150,286,Шоколадница,637389128,кафе,Центральный административный округ,Тверской район,"город Москва, Тверская улица, дом 27, строение 2",60,37.598243759981706,55.7683568498703,"{type=Point, coordinates=[37.5982437599817, 55.7683568498703]}",Средний
151,287,Николай,637389179,кафе,Центральный административный округ,Тверской район,"город Москва, Тверская улица, дом 30/2, строение 1",60,37.5974432630184,55.769294864960095,"{type=Point, coordinates=[37.5974432630184, 55.7692948649601]}",Средний
152,288,Время есть,637389206,кафе,Центральный административный округ,Тверской район,"город Москва, Тверская улица, дом 30/2, строение 1",60,37.59776379177729,55.769786205018136,"{type=Point, coordinates=[37.597763791777304, 55.76978620501814]}",Средний
153,289,Кофе Таймс,637389260,кафе,Центральный административный округ,Тверской район,"город Москва, 1-я Тверская-Ямская улица, дом 4",64,37.594260999999996,55.770142299999996,"{type=Point, coordinates=[37.594261, 55.7701423]}",Средний
154,291,Чайхона №1,637389347,кафе,Центральный административный округ,Тверской район,"город Москва, 1-я Тверская-Ямская улица, дом 7",144,37.592797,55.771494,"{type=Point, coordinates=[37.592797, 55.771494]}",Большой
155,292,Фудзи-Ко,637389375,кафе,Центральный административный округ,Тверской район,"город Москва, 1-я Тверская-Ямская улица, дом 7",32,37.592797,55.771494,"{type=Point, coordinates=[37.592797, 55.771494]}",Средний
156,293,МАГНОЛИЯ,637389425,кафе,Центральный административный округ,Тверской район,"город Москва, 1-я Тверская-Ямская улица, дом 9",10,37.591843529108,55.772094824457476,"{type=Point, coordinates=[37.591843529108, 55.77209482445748]}",Маленький
157,294,Прайм,637389441,кафе,Центральный административный округ,Тверской район,"город Москва, 1-я Тверская-Ямская улица, дом 8",40,37.593533,55.771843999999994,"{type=Point, coordinates=[37.593533, 55.771844]}",Средний
158,295,Тирольские пироги,637389445,кафе,Центральный административный округ,Тверской район,"город Москва, 1-я Тверская-Ямская улица, дом 11",30,37.591027000000004,55.772578,"{type=Point, coordinates=[37.591027, 55.772578]}",Маленький
159,297,Джаганнат,637389496,кафе,Центральный административный округ,Тверской район,"город Москва, 1-я Тверская-Ямская улица, дом 13, строение 1",30,37.589743,55.773368000000005,"{type=Point, coordinates=[37.589743, 55.773368]}",Маленький
160,298,АЛЁНКА,637389572,кафе,Центральный административный округ,Тверской район,"город Москва, 1-я Тверская-Ямская улица, дом 12",26,37.5925879009324,55.772441225157245,"{type=Point, coordinates=[37.59258790093239, 55.77244122515723]}",Маленький
161,299,ART PUB,637389625,кафе,Юго-Восточный административный округ,район Лефортово,"город Москва, улица Госпитальный Вал, дом 22/2",90,37.711937,55.773565000000005,"{type=Point, coordinates=[37.711937, 55.773565]}",Большой
162,300,Шоколадница,637389649,кафе,Центральный административный округ,Тверской район,"город Москва, улица Чаянова, дом 12",35,37.5956299828426,55.775923964804704,"{type=Point, coordinates=[37.5956299828426, 55.7759239648047]}",Средний
163,304,Шоколадница,637389863,кафе,Центральный административный округ,Пресненский район,"город Москва, улица Грузинский Вал, дом 26, строение 1",68,37.58175285213881,55.77424062070539,"{type=Point, coordinates=[37.5817528521388, 55.7742406207054]}",Средний
164,305,Фаршбургер,637389928,кафе,Центральный административный округ,Пресненский район,"город Москва, улица Грузинский Вал, дом 26, строение 1",40,37.581317027039695,55.774352205114525,"{type=Point, coordinates=[37.5813170270397, 55.774352205114525]}",Средний
165,308,Кофе Хаус,637389994,кафе,Центральный административный округ,Пресненский район,"город Москва, Грузинский переулок, дом 4",48,37.5826045499871,55.771236655324486,"{type=Point, coordinates=[37.5826045499871, 55.7712366553245]}",Средний
166,309,Кафе «Чайхана Айва»,637390036,кафе,Центральный административный округ,Пресненский район,"город Москва, Грузинский переулок, дом 14",48,37.5801369176935,55.773541939711905,"{type=Point, coordinates=[37.5801369176935, 55.7735419397119]}",Средний
167,313,Кафе «Свежая выпечка»,637390231,кафе,Западный административный округ,район Тропарёво-Никулино,"город Москва, улица 26-ти Бакинских Комиссаров, дом 7, корпус 6",10,37.484693562412154,55.65541328350497,"{type=Point, coordinates=[37.48469356241216, 55.65541328350498]}",Маленький
168,317,Дефакто,637390572,кафе,Центральный административный округ,Красносельский район,"город Москва, улица Большая Лубянка, дом 26/17, строение 1",48,37.631343213431094,55.765590815531596,"{type=Point, coordinates=[37.63134321343109, 55.76559081553159]}",Средний
169,318,Волконский,637390574,кафе,Центральный административный округ,район Якиманка,"город Москва, улица Большая Якиманка, дом 19",20,37.6153395121486,55.73742671395579,"{type=Point, coordinates=[37.6153395121486, 55.7374267139558]}",Маленький
170,319,Mos kalyan,637390625,кафе,Центральный административный округ,район Якиманка,"город Москва, улица Большая Якиманка, дом 32",50,37.612365297066944,55.734885242861694,"{type=Point, coordinates=[37.612365297066944, 55.73488524286168]}",Средний
171,320,Шоколадница,637390627,кафе,Центральный административный округ,район Якиманка,"город Москва, улица Большая Якиманка, дом 32",50,37.6127156425255,55.7353295653454,"{type=Point, coordinates=[37.6127156425255, 55.7353295653454]}",Средний
172,321,French kiss,637390725,кафе,Центральный административный округ,район Якиманка,"город Москва, улица Большая Якиманка, дом 32",4,37.61230620940969,55.7347348982146,"{type=Point, coordinates=[37.61230620940969, 55.73473489821459]}",Маленький
173,324,Хлеб насущный,637390762,кафе,Центральный административный округ,район Якиманка,"город Москва, улица Большая Якиманка, дом 56",20,37.61148368047832,55.73101276272377,"{type=Point, coordinates=[37.611483680478315, 55.73101276272377]}",Маленький
174,325,Шоколадница,637390812,кафе,Центральный административный округ,район Якиманка,"город Москва, улица Большая Якиманка, дом 58/2",50,37.61158913518,55.730582125521906,"{type=Point, coordinates=[37.61158913518, 55.7305821255219]}",Средний
175,328,КОФЕ ХАУЗ,637390924,кафе,Северный административный округ,Тимирязевский район,"город Москва, Дмитровское шоссе, дом 15, корпус 1",50,37.57200439217536,55.81910317370114,"{type=Point, coordinates=[37.57200439217536, 55.81910317370114]}",Средний
176,330,Сундук,637391046,кафе,Северный административный округ,Тимирязевский район,"город Москва, Дмитровское шоссе, дом 46, корпус 1",36,37.570346854787395,55.8443809723168,"{type=Point, coordinates=[37.5703468547874, 55.8443809723168]}",Средний
177,338,Домино'с Пицца,637391366,кафе,Центральный административный округ,район Хамовники,"город Москва, улица Доватора, дом 11, корпус 1",14,37.567575581569436,55.723099162183864,"{type=Point, coordinates=[37.56757558156944, 55.72309916218387]}",Маленький
178,339,Кафе на Доватора,637391367,кафе,Центральный административный округ,район Хамовники,"город Москва, улица Доватора, дом 13",20,37.566835119237105,55.7228092962353,"{type=Point, coordinates=[37.5668351192371, 55.7228092962353]}",Маленький
179,349,Марани,637391865,кафе,Юго-Восточный административный округ,Южнопортовый район,"город Москва, 1-я Дубровская улица, дом 6",40,37.6694652067246,55.7267638707173,"{type=Point, coordinates=[37.6694652067246, 55.7267638707173]}",Средний
180,350,Пицца Фабрика,637391871,кафе,Юго-Восточный административный округ,Южнопортовый район,"город Москва, 1-я Дубровская улица, дом 13",40,37.6730057226238,55.72367636951849,"{type=Point, coordinates=[37.6730057226238, 55.7236763695185]}",Средний
181,353,Кафе,637392006,кафе,Северный административный округ,район Ховрино,"город Москва, улица Дыбенко, дом 44",40,37.483669,55.878060999999995,"{type=Point, coordinates=[37.483669, 55.878061]}",Средний
182,354,Шоколадница,637392051,кафе,Северо-Восточный административный округ,Бабушкинский район,"город Москва, Енисейская улица, дом 11",40,37.6615666548408,55.8652177277787,"{type=Point, coordinates=[37.6615666548408, 55.8652177277787]}",Средний
183,355,КАФЕ СТОЛОВАЯ,637392088,кафе,Северо-Восточный административный округ,Бабушкинский район,"город Москва, Енисейская улица, дом 19",30,37.6629957005745,55.8687924794218,"{type=Point, coordinates=[37.6629957005745, 55.8687924794218]}",Маленький
184,361,Булошная,637392325,кафе,Центральный административный округ,район Якиманка,"город Москва, Житная улица, дом 10",50,37.6186748968186,55.730310268461196,"{type=Point, coordinates=[37.6186748968186, 55.7303102684612]}",Средний
185,364,Суши-Порт,637392533,кафе,Северо-Западный административный округ,район Строгино,"город Москва, проспект Маршала Жукова, дом 35, корпус 1",6,37.400171549727524,55.775853080087565,"{type=Point, coordinates=[37.40017154972752, 55.77585308008756]}",Маленький
186,365,Тратория,637392608,кафе,Центральный административный округ,Басманный район,"город Москва, улица Жуковского, дом 5",50,37.645319961172106,55.7638491712869,"{type=Point, coordinates=[37.6453199611721, 55.7638491712869]}",Средний
187,366,КАФЕТЕРИЙ,637392643,кафе,Северо-Восточный административный округ,район Северное Медведково,"город Москва, Заревый проезд, дом 12",48,37.656975457,55.886429960999976,"{type=Point, coordinates=[37.65697545699999, 55.886429960999976]}",Средний
188,376,Блэк-кофе мини-кофейня,637393174,кафе,Центральный административный округ,район Хамовники,"город Москва, Зубовский бульвар, дом 16-20, строение 1",10,37.588565241968695,55.738568244525254,"{type=Point, coordinates=[37.588565241968695, 55.73856824452525]}",Маленький
189,379,Суши WOK,637393280,кафе,Восточный административный округ,район Соколиная Гора,"город Москва, улица Ибрагимова, дом 5А",3,37.730607,55.77997,"{type=Point, coordinates=[37.730607, 55.77997]}",Маленький
190,380,Папа Джонс,637393291,кафе,Восточный административный округ,район Измайлово,"город Москва, Измайловский бульвар, дом 47",63,37.799670361144095,55.797256724176904,"{type=Point, coordinates=[37.7996703611441, 55.7972567241769]}",Средний
191,381,Кафе «БЛЭК-КЭТ»,637393348,кафе,Восточный административный округ,район Измайлово,"город Москва, Измайловский бульвар, дом 47",30,37.799771447330116,55.79726351330815,"{type=Point, coordinates=[37.799771447330116, 55.79726351330816]}",Маленький
192,385,Кафе Уют,637393599,кафе,Северо-Западный административный округ,район Строгино,"город Москва, улица Исаковского, дом 2, корпус 1",20,37.397262899121436,55.818933262140426,"{type=Point, coordinates=[37.39726289912143, 55.81893326214042]}",Маленький
193,387,Сити Пицца,637393678,кафе,Северо-Западный административный округ,район Строгино,"город Москва, улица Исаковского, дом 33, корпус 3",20,37.4202775937098,55.80491866183489,"{type=Point, coordinates=[37.4202775937098, 55.8049186618349]}",Маленький
194,388,СТАРАЯ ГАВАНЬ,637393730,кафе,Юго-Восточный административный округ,район Лефортово,"город Москва, 2-я Кабельная улица, дом 10",45,37.717316,55.748667000000005,"{type=Point, coordinates=[37.717316, 55.748667]}",Средний
195,391,Чито-Ра,637393797,кафе,Центральный административный округ,Басманный район,"город Москва, улица Казакова, дом 10/2, строение 1",40,37.6628455148762,55.762201281704904,"{type=Point, coordinates=[37.6628455148762, 55.7622012817049]}",Средний
196,392,Кондитерская Волконский,637393916,кафе,Центральный административный округ,район Арбат,"город Москва, улица Новый Арбат, дом 22",26,37.58896393165232,55.75309717535841,"{type=Point, coordinates=[37.588963931652316, 55.753097175358405]}",Маленький
197,393,Кальянная №1,637393919,кафе,Центральный административный округ,район Арбат,"город Москва, улица Новый Арбат, дом 22",70,37.58896393165232,55.75309717535841,"{type=Point, coordinates=[37.588963931652316, 55.753097175358405]}",Средний
198,394,Шоколадница,637393980,кафе,Центральный административный округ,район Арбат,"город Москва, улица Новый Арбат, дом 22",50,37.5888719561035,55.75297330684585,"{type=Point, coordinates=[37.58887195610351, 55.75297330684586]}",Средний
199,396,Траттория Семпличе,637394104,кафе,Центральный административный округ,Тверской район,"город Москва, Долгоруковская улица, дом 39/6",50,37.60063233447952,55.778641394184206,"{type=Point, coordinates=[37.60063233447952, 55.778641394184206]}",Средний
200,397,Кофе Бин,637394149,кафе,Центральный административный округ,Тверской район,"город Москва, Долгоруковская улица, дом 39/6",35,37.60063233447952,55.778641394184206,"{type=Point, coordinates=[37.60063233447952, 55.778641394184206]}",Средний
201,398,Кафе «XXI»,637394186,кафе,Центральный административный округ,Таганский район,"город Москва, улица Большие Каменщики, дом 21/8",40,37.6577385889122,55.7356292610946,"{type=Point, coordinates=[37.6577385889122, 55.7356292610946]}",Средний
202,401,Love,637394320,кафе,Троицкий административный округ,поселение Щаповское,"город Москва, 2-й квартал Капотня, дом 1",40,37.4,55.4,"{type=Point, coordinates=[37.4, 55.4]}",Средний
203,403,Бар- буфет «Николай»,637394417,кафе,Центральный административный округ,Басманный район,"город Москва, Старая Басманная улица, дом 5, строение 1",65,37.657009028059996,55.764501063424795,"{type=Point, coordinates=[37.65700902806, 55.7645010634248]}",Средний
204,404,Флорентини,637394457,кафе,Центральный административный округ,Басманный район,"город Москва, Старая Басманная улица, дом 9, корпус 1",48,37.6577761398384,55.7648270069061,"{type=Point, coordinates=[37.6577761398384, 55.7648270069061]}",Средний
205,409,Кафе «Фрэндс Форевер»,637394686,кафе,Центральный административный округ,Пресненский район,"город Москва, Малая Никитская улица, дом 2/1, строение 1",20,37.59739041747911,55.75796425166534,"{type=Point, coordinates=[37.59739041747911, 55.75796425166534]}",Маленький
206,410,Кафе «Брауни»,637394688,кафе,Центральный административный округ,Пресненский район,"город Москва, Малая Никитская улица, дом 2/1, строение 1",25,37.59739041747911,55.75796425166534,"{type=Point, coordinates=[37.59739041747911, 55.75796425166534]}",Маленький
207,411,Кафе «Буба на Никитской»,637394767,кафе,Центральный административный округ,Пресненский район,"город Москва, Малая Никитская улица, дом 10",30,37.59486086879182,55.75824515295082,"{type=Point, coordinates=[37.59486086879182, 55.75824515295083]}",Маленький
208,413,Чайхона 7-24,637394846,кафе,Южный административный округ,район Нагатино-Садовники,"город Москва, Каширское шоссе, дом 5, корпус 1",40,37.62841055315879,55.67084958850234,"{type=Point, coordinates=[37.62841055315879, 55.67084958850234]}",Средний
209,419,Кафе,637395210,кафе,Юго-Западный административный округ,район Зюзино,"город Москва, Керченская улица, дом 1А, корпус 3",50,37.584052942856104,55.654914788766,"{type=Point, coordinates=[37.5840529428561, 55.654914788766]}",Средний
210,420,Dominos Pizza,637395220,кафе,Северо-Восточный административный округ,Алексеевский район,"город Москва, улица Кибальчича, дом 2, корпус 1",18,37.644172641740695,55.81601734981961,"{type=Point, coordinates=[37.644172641740695, 55.81601734981962]}",Маленький
211,424,Бабетта,637395385,кафе,Центральный административный округ,Красносельский район,"город Москва, Мясницкая улица, дом 15",70,37.634394546481815,55.76305408125455,"{type=Point, coordinates=[37.63439454648181, 55.763054081254545]}",Средний
212,426,Погребок,637395458,кафе,Центральный административный округ,Басманный район,"город Москва, Мясницкая улица, дом 22, строение 1",34,37.63441107333824,55.7620712031242,"{type=Point, coordinates=[37.634411073338235, 55.7620712031242]}",Средний
213,427,Две палочки,637395482,кафе,Центральный административный округ,Басманный район,"город Москва, Мясницкая улица, дом 24/7, строение 1",190,37.6351651178446,55.76275662223821,"{type=Point, coordinates=[37.6351651178446, 55.7627566222382]}",Большой
214,431,Хлеб насущный,637395669,кафе,Центральный административный округ,Басманный район,"город Москва, Мясницкая улица, дом 24/7, строение 1",50,37.635593,55.762443999999995,"{type=Point, coordinates=[37.635593, 55.762444]}",Средний
215,432,Джон Джоли,637395697,кафе,Центральный административный округ,Басманный район,"город Москва, Мясницкая улица, дом 24/7, строение 2",80,37.635723017319606,55.763287810131004,"{type=Point, coordinates=[37.6357230173196, 55.763287810131]}",Большой
216,433,Шоколадница,637395710,кафе,Центральный административный округ,Басманный район,"город Москва, Мясницкая улица, дом 24/7, строение 2",55,37.635798119170495,55.7632395206206,"{type=Point, coordinates=[37.6357981191705, 55.7632395206206]}",Средний
217,435,Макдоналдс,637395778,кафе,Центральный административный округ,Басманный район,"город Москва, Мясницкая улица, дом 30/1/2, строение 1",131,37.63840522633341,55.7653642024568,"{type=Point, coordinates=[37.6384052263334, 55.7653642024568]}",Большой
218,436,Теремок,637395804,кафе,Центральный административный округ,Басманный район,"город Москва, Мясницкая улица, дом 30/1/2, строение 2",20,37.63891339805468,55.765140721244364,"{type=Point, coordinates=[37.638913398054676, 55.765140721244364]}",Маленький
219,437,LAMBIC Брассерия,637395856,кафе,Центральный административный округ,Басманный район,"город Москва, Мясницкая улица, дом 40А",60,37.64065501918893,55.76646972370562,"{type=Point, coordinates=[37.64065501918893, 55.766469723705626]}",Средний
220,441,"Shell, Yes",637395988,кафе,Центральный административный округ,Мещанский район,"город Москва, Рождественский бульвар, дом 10/7, строение 1",30,37.626211375778716,55.76622508201151,"{type=Point, coordinates=[37.62621137577873, 55.7662250820115]}",Маленький
221,442,Шоколадница,637396205,кафе,Центральный административный округ,район Замоскворечье,"город Москва, Кожевническая улица, дом 5",48,37.64398896701192,55.73020510243581,"{type=Point, coordinates=[37.643988967011914, 55.7302051024358]}",Средний
222,444,Бар«Brix Bar»,637396281,кафе,Центральный административный округ,Пресненский район,"город Москва, Малый Козихинский переулок, дом 10, строение 1",20,37.5961499931471,55.7643354615845,"{type=Point, coordinates=[37.5961499931471, 55.7643354615845]}",Маленький
223,448,Рюмочная Бухучет,637396493,кафе,Центральный административный округ,Красносельский район,"город Москва, Большая Сухаревская площадь, дом 16/18, строение 1",40,37.63735351706735,55.771536891050225,"{type=Point, coordinates=[37.637353517067346, 55.77153689105023]}",Средний
224,449,Мацони,637396546,кафе,Центральный административный округ,Красносельский район,"город Москва, Большая Сухаревская площадь, дом 16/18, строение 2",32,37.63815366012297,55.77153805179936,"{type=Point, coordinates=[37.63815366012297, 55.77153805179935]}",Средний
225,450,Courvoisier,637396577,кафе,Центральный административный округ,Мещанский район,"город Москва, Малая Сухаревская площадь, дом 8",80,37.6299979067608,55.7727374623038,"{type=Point, coordinates=[37.6299979067608, 55.7727374623038]}",Большой
226,452,Папа Вейдер,637396678,кафе,Центральный административный округ,Басманный район,"город Москва, Большой Златоустинский переулок, дом 3/5, строение 1",50,37.63306427272391,55.75914346221719,"{type=Point, coordinates=[37.6330642727239, 55.75914346221719]}",Средний
227,455,Восточка. Этническая кухня.,637396734,кафе,Центральный административный округ,район Хамовники,"город Москва, Комсомольский проспект, дом 5/2",20,37.59317551635269,55.7319069264576,"{type=Point, coordinates=[37.593175516352694, 55.73190692645758]}",Маленький
228,457,Snooty Fox,637396813,кафе,Центральный административный округ,район Хамовники,"город Москва, Комсомольский проспект, дом 14/1, корпус 1",48,37.589157622208,55.7310667008985,"{type=Point, coordinates=[37.589157622208, 55.7310667008985]}",Средний
229,458,Винный Базар Соседи,637396880,кафе,Центральный административный округ,район Хамовники,"город Москва, Комсомольский проспект, дом 14/1, корпус 2",38,37.58997046695508,55.731381715120584,"{type=Point, coordinates=[37.58997046695508, 55.73138171512058]}",Средний
230,459,Беби Джоли,637396892,кафе,Центральный административный округ,район Хамовники,"город Москва, Комсомольский проспект, дом 14/1, корпус 2",80,37.58998,55.7313,"{type=Point, coordinates=[37.58998, 55.7313]}",Большой
231,460,Штолле,637396919,кафе,Центральный административный округ,район Хамовники,"город Москва, Комсомольский проспект, дом 15, строение 2",35,37.58798658089871,55.729468137296216,"{type=Point, coordinates=[37.5879865808987, 55.72946813729622]}",Средний
232,461,БАЛОВЕНЬ Т,637396995,кафе,Центральный административный округ,район Хамовники,"город Москва, Комсомольский проспект, дом 17",25,37.58738776836329,55.729563561915114,"{type=Point, coordinates=[37.5873877683633, 55.7295635619151]}",Маленький
233,462,Ваби-Саби,637396998,кафе,Центральный административный округ,район Хамовники,"город Москва, Комсомольский проспект, дом 21/10",45,37.5845035539686,55.728068885880205,"{type=Point, coordinates=[37.5845035539686, 55.7280688858802]}",Средний
234,463,Шоколадница,637397024,кафе,Центральный административный округ,район Хамовники,"город Москва, Комсомольский проспект, дом 21/10",41,37.58447924854681,55.728097833667896,"{type=Point, coordinates=[37.5844792485468, 55.7280978336679]}",Средний
235,464,Кофемания,637397027,кафе,Центральный административный округ,район Хамовники,"город Москва, Комсомольский проспект, дом 21/10",45,37.584799661296756,55.72799580995632,"{type=Point, coordinates=[37.58479966129676, 55.72799580995632]}",Средний
236,466,Шоколадница,637397172,кафе,Центральный административный округ,район Хамовники,"город Москва, Комсомольский проспект, дом 29",92,37.580095,55.725017,"{type=Point, coordinates=[37.580095, 55.725017]}",Большой
237,470,Кафе,637397316,кафе,Северо-Восточный административный округ,район Бибирево,"город Москва, улица Конёнкова, дом 14",120,37.61333242217361,55.893645984310204,"{type=Point, coordinates=[37.61333242217361, 55.89364598431022]}",Большой
238,471,Хачмас,637397344,кафе,Юго-Восточный административный округ,Рязанский район,"город Москва, улица Коновалова, дом 16А",35,37.764836999999794,55.7311949999998,"{type=Point, coordinates=[37.7648369999998, 55.7311949999998]}",Средний
239,472,Простые Вещи,637397370,кафе,Центральный административный округ,Пресненский район,"город Москва, Конюшковская улица, дом 32",45,37.57885,55.760078,"{type=Point, coordinates=[37.57885, 55.760078]}",Средний
240,474,KoпTeam,637397450,кафе,Северный административный округ,район Коптево,"город Москва, Коптевская улица, дом 22",40,37.519704,55.831464000000004,"{type=Point, coordinates=[37.519704, 55.831464]}",Средний
241,476,Кафе «ГАНЕШ»,637397556,кафе,Северо-Восточный административный округ,Останкинский район,"город Москва, улица Академика Королёва, дом 3",40,37.6344965455636,55.8209377788552,"{type=Point, coordinates=[37.6344965455636, 55.8209377788552]}",Средний
242,480,Кафе «Петтина»,637397690,кафе,Северо-Восточный административный округ,Алексеевский район,"город Москва, улица Космонавтов, дом 2",40,37.644357678416,55.820877577352,"{type=Point, coordinates=[37.644357678416, 55.820877577352]}",Средний
243,481,НАСЛЕДИЕ,637397768,кафе,Северо-Восточный административный округ,Алексеевский район,"город Москва, улица Космонавтов, дом 2",54,37.64444536250861,55.82049601736365,"{type=Point, coordinates=[37.64444536250861, 55.820496017363645]}",Средний
244,482,АНДРОМЕДА,637397769,кафе,Северо-Восточный административный округ,Алексеевский район,"город Москва, улица Космонавтов, дом 9",20,37.65726926344149,55.821927442115744,"{type=Point, coordinates=[37.657269263441485, 55.821927442115744]}",Маленький
245,483,Кафе «ФарФале»,637397832,кафе,Северо-Восточный административный округ,Алексеевский район,"город Москва, улица Космонавтов, дом 12",48,37.6529731590171,55.820933751026004,"{type=Point, coordinates=[37.6529731590171, 55.820933751026]}",Средний
246,486,Спортбар №1,637397953,кафе,Северный административный округ,Тимирязевский район,"город Москва, улица Костякова, дом 6/5",40,37.573177926401904,55.811499918000706,"{type=Point, coordinates=[37.5731779264019, 55.8114999180007]}",Средний
247,487,Илларион,637397979,кафе,Юго-Западный административный округ,Гагаринский район,"город Москва, улица Косыгина, дом 5",46,37.57270444725609,55.707067239776315,"{type=Point, coordinates=[37.5727044472561, 55.7070672397763]}",Средний
248,489,Кафе «Чайхана Тапчан»,637398001,кафе,Западный административный округ,район Проспект Вернадского,"город Москва, улица Коштоянца, дом 1/83",102,37.4938545394671,55.680395383159606,"{type=Point, coordinates=[37.4938545394671, 55.6803953831596]}",Большой
249,494,Кафе «Мишель»,637398300,кафе,Центральный административный округ,Пресненский район,"город Москва, улица Красная Пресня, дом 11",80,37.571983068948995,55.7612535252417,"{type=Point, coordinates=[37.571983068949, 55.7612535252417]}",Большой
250,495,Шоколадница,637398337,кафе,Центральный административный округ,Пресненский район,"город Москва, улица Красная Пресня, дом 32-34",48,37.56737145563879,55.762374826520606,"{type=Point, coordinates=[37.5673714556388, 55.7623748265206]}",Средний
251,497,Кафе «Пицца бар»,637398442,кафе,Центральный административный округ,Пресненский район,"город Москва, улица Красная Пресня, дом 29",25,37.564052929104854,55.762255596411954,"{type=Point, coordinates=[37.564052929104854, 55.762255596411954]}",Маленький
252,498,Кафе «Brooklyn burgers»,637398475,кафе,Центральный административный округ,Пресненский район,"город Москва, улица Красная Пресня, дом 29",20,37.564052929104854,55.762255596411954,"{type=Point, coordinates=[37.564052929104854, 55.762255596411954]}",Маленький
253,506,Бистро,637398973,кафе,Центральный административный округ,Красносельский район,"город Москва, Краснопрудная улица, дом 1",60,37.65912535654784,55.77692243529456,"{type=Point, coordinates=[37.65912535654784, 55.77692243529456]}",Средний
254,507,Шоколадница,637399120,кафе,Центральный административный округ,Красносельский район,"город Москва, Краснопрудная улица, дом 3-5, строение 1",40,37.660514192,55.777441835999966,"{type=Point, coordinates=[37.660514191999994, 55.77744183599996]}",Средний
255,508,Восточная сказка,637399148,кафе,Центральный административный округ,Красносельский район,"город Москва, Краснопрудная улица, дом 7-9",44,37.663276434000004,55.77871409199997,"{type=Point, coordinates=[37.66327643400002, 55.77871409199997]}",Средний
256,509,Старый Чинар,637399175,кафе,Центральный административный округ,Красносельский район,"город Москва, Краснопрудная улица, дом 22-24",44,37.66468650899998,55.778495426000006,"{type=Point, coordinates=[37.66468650899998, 55.778495426]}",Средний
257,510,Штолле,637399221,кафе,Центральный административный округ,Красносельский район,"город Москва, Краснопрудная улица, дом 22-24",35,37.665309,55.778715000000005,"{type=Point, coordinates=[37.665309, 55.778715]}",Средний
258,512,Шоколадница,637399255,кафе,Центральный административный округ,Красносельский район,"город Москва, Краснопрудная улица, дом 26",45,37.667427681999996,55.77977574200003,"{type=Point, coordinates=[37.66742768199998, 55.779775742000034]}",Средний
259,516,Анор,637399438,кафе,Центральный административный округ,Басманный район,"город Москва, Нижняя Красносельская улица, дом 45/17",54,37.67579581422175,55.77302463977122,"{type=Point, coordinates=[37.67579581422175, 55.773024639771215]}",Средний
260,518,Кофе с собой,637399494,кафе,Центральный административный округ,Таганский район,"город Москва, Краснохолмская набережная, дом 13, строение 1",0,37.65197668967378,55.7350380748283,"{type=Point, coordinates=[37.65197668967377, 55.7350380748283]}",Маленький
261,522,ВСТРЕЧА,637399719,кафе,Юго-Западный административный округ,Академический район,"город Москва, улица Кржижановского, дом 1/19",80,37.560412377694576,55.683907684387314,"{type=Point, coordinates=[37.56041237769458, 55.683907684387314]}",Большой
262,523,КАФЕ,637399759,кафе,Юго-Западный административный округ,Академический район,"город Москва, улица Кржижановского, дом 4, корпус 1",48,37.5610503183434,55.682975286916296,"{type=Point, coordinates=[37.5610503183434, 55.6829752869163]}",Средний
263,530,Огни Востока,637400114,кафе,Северный административный округ,Головинский район,"город Москва, Кронштадтский бульвар, дом 15, корпус 1",70,37.494317554407786,55.84262000601569,"{type=Point, coordinates=[37.49431755440778, 55.842620006015686]}",Средний
264,531,Шоколадница,637400211,кафе,Центральный административный округ,район Хамовники,"город Москва, Гоголевский бульвар, дом 3",49,37.6005059064496,55.7449894430733,"{type=Point, coordinates=[37.6005059064496, 55.7449894430733]}",Средний
265,532,Теремок,637400213,кафе,Центральный административный округ,район Хамовники,"город Москва, Гоголевский бульвар, дом 3",16,37.600467,55.74504699999991,"{type=Point, coordinates=[37.600467, 55.7450469999999]}",Маленький
266,533,КУ КА Буфет домашней еды,637400261,кафе,Центральный административный округ,район Хамовники,"город Москва, улица Пречистенка, дом 31/16",25,37.59012960013117,55.74000790506867,"{type=Point, coordinates=[37.59012960013117, 55.74000790506867]}",Маленький
267,534,Кружка,637400396,кафе,Юго-Восточный административный округ,Южнопортовый район,"город Москва, 3-й Крутицкий переулок, дом 13",110,37.66353216038271,55.730715032728604,"{type=Point, coordinates=[37.6635321603827, 55.7307150327286]}",Большой
268,539,Андерсон,637400641,кафе,Восточный административный округ,район Новогиреево,"город Москва, Кусковская улица, дом 47",42,37.794408896972996,55.74440780749428,"{type=Point, coordinates=[37.794408896972996, 55.74440780749428]}",Средний
269,545,"КАФЕ-БУТИК POSH UP, BABE",637400880,кафе,Западный административный округ,район Дорогомилово,"город Москва, Кутузовский проспект, дом 8",12,37.560513694510064,55.749178320529715,"{type=Point, coordinates=[37.560513694510064, 55.74917832052972]}",Маленький
270,546,КОФЕМАНИЯ,637400931,кафе,Западный административный округ,район Дорогомилово,"город Москва, Кутузовский проспект, дом 17",48,37.556805328365,55.74658833315391,"{type=Point, coordinates=[37.556805328365, 55.7465883331539]}",Средний
271,547,ПИОН,637401061,кафе,Западный административный округ,район Дорогомилово,"город Москва, Кутузовский проспект, дом 21",50,37.550036847911905,55.745113454145,"{type=Point, coordinates=[37.5500368479119, 55.745113454145]}",Средний
272,548,КОФЕ ХАУС. ЭКСПРЕССО И КАПУЧИНО БАР,637401065,кафе,Западный административный округ,район Дорогомилово,"город Москва, Кутузовский проспект, дом 30",50,37.5360372088986,55.74093146168139,"{type=Point, coordinates=[37.5360372088986, 55.7409314616814]}",Средний
273,552,БОГДАРЕВ АЛЕКСАНДР ЮРЬЕВИЧ,637401208,кафе,Северо-Восточный административный округ,район Марьина Роща,"город Москва, Лазаревский переулок, дом 4",6,37.613019351555565,55.79083362650423,"{type=Point, coordinates=[37.61301935155556, 55.79083362650423]}",Маленький
274,557,ФорТутти,637401411,кафе,Северный административный округ,район Беговой,"город Москва, Ленинградский проспект, дом 2",23,37.582721036003214,55.778674116254464,"{type=Point, coordinates=[37.58272103600321, 55.77867411625446]}",Маленький
275,558,Папа Джонс,637401458,кафе,Северный административный округ,район Беговой,"город Москва, Ленинградский проспект, дом 10",56,37.5803365977942,55.7794686916984,"{type=Point, coordinates=[37.5803365977942, 55.7794686916984]}",Средний
276,560,Шоколадница,637401509,кафе,Северный административный округ,район Беговой,"город Москва, Ленинградский проспект, дом 12",65,37.579108322585704,55.779975015955706,"{type=Point, coordinates=[37.5791083225857, 55.7799750159557]}",Средний
277,561,Ваби-Саби,637401569,кафе,Северный административный округ,район Беговой,"город Москва, Ленинградский проспект, дом 12",56,37.5789877285372,55.7800480028884,"{type=Point, coordinates=[37.5789877285372, 55.7800480028884]}",Средний
278,562,Хлеб&Co,637401654,кафе,Северный административный округ,район Беговой,"город Москва, Ленинградский проспект, дом 24",16,37.573756,55.78256700000001,"{type=Point, coordinates=[37.573756, 55.782567]}",Маленький
279,564,Кафе Хинкальная,637401701,кафе,Северный административный округ,район Беговой,"город Москва, Ленинградский проспект, дом 33, корпус 3",28,37.56101480815511,55.7868812533596,"{type=Point, coordinates=[37.5610148081551, 55.7868812533596]}",Маленький
280,565,AL33 Пиццерия Бар Ботега,637401728,кафе,Северный административный округ,район Беговой,"город Москва, Ленинградский проспект, дом 33, корпус 4",30,37.559910878803755,55.78726968453545,"{type=Point, coordinates=[37.559910878803755, 55.78726968453546]}",Маленький
281,570,Кофе-Бин,637401874,кафе,Северный административный округ,район Аэропорт,"город Москва, Ленинградский проспект, дом 56",50,37.537699006655686,55.7985985819297,"{type=Point, coordinates=[37.5376990066557, 55.7985985819297]}",Средний
282,571,Crema espresso bar,637401889,кафе,Северный административный округ,район Аэропорт,"город Москва, Ленинградский проспект, дом 60, корпус 1",2,37.535294817078665,55.799750280099545,"{type=Point, coordinates=[37.535294817078665, 55.79975028009955]}",Маленький
283,572,Штолле,637401975,кафе,Северный административный округ,район Аэропорт,"город Москва, Ленинградский проспект, дом 62",37,37.53247369926881,55.80104888198879,"{type=Point, coordinates=[37.532473699268806, 55.80104888198879]}",Средний
284,573,Кофе Хауз,637402018,кафе,Северный административный округ,район Аэропорт,"город Москва, Ленинградский проспект, дом 62",61,37.53410759183056,55.800644278012065,"{type=Point, coordinates=[37.53410759183056, 55.800644278012065]}",Средний
285,574,Французская выпечка,637402019,кафе,Северный административный округ,район Аэропорт,"город Москва, Ленинградский проспект, дом 62",26,37.53410759183056,55.800644278012065,"{type=Point, coordinates=[37.53410759183056, 55.800644278012065]}",Маленький
286,577,Французская выпечка,637402075,кафе,Северный административный округ,район Аэропорт,"город Москва, Ленинградский проспект, дом 74, корпус 1",4,37.5168680354484,55.805109735125704,"{type=Point, coordinates=[37.5168680354484, 55.805109735125704]}",Маленький
287,578,Кофе Хауз,637402143,кафе,Северный административный округ,район Аэропорт,"город Москва, Ленинградский проспект, дом 74, корпус 1",98,37.516568285808255,55.80520325834001,"{type=Point, coordinates=[37.51656828580826, 55.80520325834]}",Большой
288,579,Шоколадница,637402193,кафе,Северный административный округ,район Аэропорт,"город Москва, Ленинградский проспект, дом 74, корпус 1",98,37.5172713027996,55.8050147366361,"{type=Point, coordinates=[37.5172713027996, 55.8050147366361]}",Большой
289,583,Французская выпечка,637402527,кафе,Северный административный округ,район Аэропорт,"город Москва, Ленинградский проспект, дом 78, корпус 1",6,37.513838075261404,55.8059010959349,"{type=Point, coordinates=[37.5138380752614, 55.8059010959349]}",Маленький
290,585,Вилдшвайн,637404119,кафе,Северный административный округ,Войковский район,"город Москва, Ленинградское шоссе, дом 8, корпус 2",39,37.500100903955456,55.81737537100872,"{type=Point, coordinates=[37.500100903955456, 55.81737537100872]}",Средний
291,586,Пиво есть,637405378,кафе,Северный административный округ,Войковский район,"город Москва, Ленинградское шоссе, дом 9, корпус 1",20,37.498623145404295,55.81660927579221,"{type=Point, coordinates=[37.4986231454043, 55.8166092757922]}",Маленький
292,587,Чайхона Лаззат,637407110,кафе,Северный административный округ,Войковский район,"город Москва, Ленинградское шоссе, дом 44",120,37.48767967241746,55.8324798675809,"{type=Point, coordinates=[37.48767967241745, 55.83247986758091]}",Большой
293,588,Кафе Дяди Сэма,637407150,кафе,Центральный административный округ,район Замоскворечье,"город Москва, улица Зацепский Вал, дом 5",99,37.640938960531614,55.73247536188062,"{type=Point, coordinates=[37.64093896053161, 55.732475361880624]}",Большой
294,589,кафе Аэробар при Павелецком вокзале,637407178,кафе,Центральный административный округ,район Замоскворечье,"город Москва, Павелецкая площадь, дом 1",46,37.64099053095653,55.73155505365487,"{type=Point, coordinates=[37.640990530956515, 55.73155505365487]}",Средний
295,590,Чайхона АЙВА,637407247,кафе,Центральный административный округ,район Замоскворечье,"город Москва, Павелецкая площадь, дом 1",60,37.64097013493637,55.731561244316815,"{type=Point, coordinates=[37.640970134936374, 55.73156124431681]}",Средний
296,591,Кафе Ферганское,637407282,кафе,Центральный административный округ,район Замоскворечье,"город Москва, Павелецкая площадь, дом 1",67,37.64097013493637,55.731561244316815,"{type=Point, coordinates=[37.640970134936374, 55.73156124431681]}",Средний
297,592,Общественное питание,637407283,кафе,Центральный административный округ,район Замоскворечье,"город Москва, Павелецкая площадь, дом 1",40,37.64097013493637,55.731561244316815,"{type=Point, coordinates=[37.640970134936374, 55.73156124431681]}",Средний
298,593,Кофейня «Кофе Хауз»,637407294,кафе,Центральный административный округ,район Замоскворечье,"город Москва, Павелецкая площадь, дом 1А, строение 1",0,37.639532132605964,55.729743511204966,"{type=Point, coordinates=[37.63953213260597, 55.72974351120497]}",Маленький
299,596,Общественное питание,637407390,кафе,Центральный административный округ,район Замоскворечье,"город Москва, Павелецкая площадь, дом 1",35,37.64097013493637,55.731561244316815,"{type=Point, coordinates=[37.640970134936374, 55.73156124431681]}",Средний
300,597,Общественное питание,637407438,кафе,Центральный административный округ,район Замоскворечье,"город Москва, Павелецкая площадь, дом 1",39,37.64097013493637,55.731561244316815,"{type=Point, coordinates=[37.640970134936374, 55.73156124431681]}",Средний
301,600,Де Марко,637407600,кафе,Центральный административный округ,район Якиманка,"город Москва, Ленинский проспект, дом 13",120,37.6021524892875,55.72209929330681,"{type=Point, coordinates=[37.6021524892875, 55.7220992933068]}",Большой
302,603,Кафетерий «Итальянская кондитерская»,637407631,кафе,Южный административный округ,Донской район,"город Москва, Ленинский проспект, дом 37",12,37.58714636436178,55.7098934300664,"{type=Point, coordinates=[37.58714636436178, 55.70989343006641]}",Маленький
303,608,Кофейня «Шоколадница»,637407892,кафе,Южный административный округ,Донской район,"город Москва, Ленинский проспект, дом 37А",43,37.58577513274229,55.70926037960938,"{type=Point, coordinates=[37.58577513274229, 55.709260379609375]}",Средний
304,615,Шоколадница,637408213,кафе,Юго-Западный административный округ,Гагаринский район,"город Москва, Ленинский проспект, дом 68/10",68,37.54578318463111,55.6892804554772,"{type=Point, coordinates=[37.5457831846311, 55.6892804554772]}",Средний
305,617,Иль-патио,637408267,кафе,Юго-Западный административный округ,Гагаринский район,"город Москва, Ленинский проспект, дом 68/10",88,37.5443436873953,55.689118681861494,"{type=Point, coordinates=[37.5443436873953, 55.6891186818615]}",Большой
306,619,Азбука Вкуса,637408453,кафе,Юго-Западный административный округ,Ломоносовский район,"город Москва, Ленинский проспект, дом 82/2",10,37.53406707615913,55.68120529462964,"{type=Point, coordinates=[37.534067076159126, 55.68120529462964]}",Маленький
307,621,Азбука Вкуса,637408588,кафе,Юго-Западный административный округ,Ломоносовский район,"город Москва, Ленинский проспект, дом 91",10,37.52932348144837,55.67634291659292,"{type=Point, coordinates=[37.529323481448365, 55.67634291659292]}",Маленький
308,622,Черетто,637408590,кафе,Юго-Западный административный округ,Ломоносовский район,"город Москва, Ленинский проспект, дом 95",75,37.525975,55.67309,"{type=Point, coordinates=[37.525975, 55.67309]}",Средний
309,623,Рика,637408659,кафе,Юго-Западный административный округ,Обручевский район,"город Москва, Ленинский проспект, дом 99",36,37.51874822791729,55.66862531683192,"{type=Point, coordinates=[37.5187482279173, 55.668625316831914]}",Средний
310,624,Мюнгер,637408770,кафе,Юго-Западный административный округ,Обручевский район,"город Москва, Ленинский проспект, дом 99",22,37.51874822791729,55.66862531683192,"{type=Point, coordinates=[37.5187482279173, 55.668625316831914]}",Маленький
311,625,Кафе «Башлам»,637408772,кафе,Западный административный округ,район Тропарёво-Никулино,"город Москва, Ленинский проспект, дом 148",50,37.476676999,55.670902000000005,"{type=Point, coordinates=[37.476676999, 55.670902]}",Средний
312,628,НЭЦКЭ,637408905,кафе,Северо-Восточный административный округ,район Бибирево,"город Москва, улица Лескова, дом 6",98,37.592485807997896,55.8978610408059,"{type=Point, coordinates=[37.5924858079979, 55.8978610408059]}",Большой
313,631,Хинкали Пойнт,637409038,кафе,Центральный административный округ,Тверской район,"город Москва, Лесная улица, дом 20, строение 1",45,37.592009405683704,55.78044984130314,"{type=Point, coordinates=[37.592009405683704, 55.78044984130314]}",Средний
314,633,Кондитерская «Кузина»,637409091,кафе,Южный административный округ,Даниловский район,"город Москва, улица Лестева, дом 21/61, корпус 1",7,37.60844047267139,55.714371600146535,"{type=Point, coordinates=[37.60844047267139, 55.71437160014653]}",Маленький
315,643,Пиатто,637409569,кафе,Центральный административный округ,Красносельский район,"город Москва, улица Малая Лубянка, дом 16",40,37.63155994187272,55.764384576107524,"{type=Point, coordinates=[37.63155994187272, 55.764384576107524]}",Средний
316,644,ГивиСациви,637409649,кафе,Центральный административный округ,район Хамовники,"город Москва, Лужнецкий проезд, дом 1",95,37.5603941716373,55.72654908175261,"{type=Point, coordinates=[37.5603941716373, 55.7265490817526]}",Большой
317,645,Блан де Блан,637409757,кафе,Центральный административный округ,район Замоскворечье,"город Москва, Люсиновская улица, дом 36/50",35,37.62154837022071,55.72230697855075,"{type=Point, coordinates=[37.62154837022071, 55.72230697855075]}",Средний
318,646,кафе «Папа Джонс»,637409809,кафе,Центральный административный округ,район Замоскворечье,"город Москва, Люсиновская улица, дом 41, строение 1",24,37.62349323299736,55.72140341827649,"{type=Point, coordinates=[37.62349323299737, 55.72140341827649]}",Маленький
319,647,Кафе-пекарня «Бурекас Бейкери»,637409863,кафе,Южный административный округ,Даниловский район,"город Москва, Люсиновская улица, дом 53",10,37.6232447774133,55.71863729786511,"{type=Point, coordinates=[37.6232447774133, 55.7186372978651]}",Маленький
320,648,Кафе «Urbankitchen Гастропаб»,637409864,кафе,Южный административный округ,Даниловский район,"город Москва, Люсиновская улица, дом 55",15,37.62351738763368,55.71704342351089,"{type=Point, coordinates=[37.62351738763368, 55.71704342351088]}",Маленький
321,649,КАФЕ БУЛОШНАЯ,637409873,кафе,Центральный административный округ,Басманный район,"город Москва, Лялин переулок, дом 7/2, строение 1",50,37.6520630346356,55.7595995267129,"{type=Point, coordinates=[37.6520630346356, 55.7595995267129]}",Средний
322,650,Кафе Капкан,637409953,кафе,Восточный административный округ,район Ивановское,"город Москва, Магнитогорская улица, дом 7",40,37.825591229064,55.774441084357,"{type=Point, coordinates=[37.825591229064, 55.774441084357]}",Средний
323,654,Круассан,637410128,кафе,Центральный административный округ,район Замоскворечье,"город Москва, Космодамианская набережная, дом 40-42, строение 3",12,37.64451307287357,55.737840399557285,"{type=Point, coordinates=[37.64451307287357, 55.73784039955728]}",Маленький
324,656,Кафе «Smoothiencoffee»,637410208,кафе,Центральный административный округ,Пресненский район,"город Москва, Мантулинская улица, дом 18",20,37.551567745818076,55.75648971337475,"{type=Point, coordinates=[37.55156774581807, 55.75648971337475]}",Маленький
325,657,Кафе Chicen and pizza,637410263,кафе,Центральный административный округ,Пресненский район,"город Москва, Мантулинская улица, дом 18",42,37.551567745818076,55.75648971337475,"{type=Point, coordinates=[37.55156774581807, 55.75648971337475]}",Средний
326,658,ЗОЛОТЫЕ РУЧКИ,637410341,кафе,Юго-Восточный административный округ,район Люблино,"город Москва, Люблинская улица, дом 121/1",40,37.739818,55.674988,"{type=Point, coordinates=[37.739818, 55.674988]}",Средний
327,661,Кафе «Штолле»,637410432,кафе,Центральный административный округ,Таганский район,"город Москва, Марксистская улица, дом 5",35,37.663975629629505,55.73711819251357,"{type=Point, coordinates=[37.66397562962951, 55.73711819251357]}",Средний
328,665,Кофейня «Даблби»,637410582,кафе,Центральный административный округ,Красносельский район,"город Москва, Милютинский переулок, дом 3",20,37.63138400547137,55.761485909202115,"{type=Point, coordinates=[37.63138400547137, 55.76148590920212]}",Маленький
329,666,Паста и Баста,637410684,кафе,Центральный административный округ,Красносельский район,"город Москва, Милютинский переулок, дом 19/4, строение 2",20,37.63212688490405,55.76600680590438,"{type=Point, coordinates=[37.63212688490405, 55.76600680590438]}",Маленький
330,667,Чин Чин,637410793,кафе,Северный административный округ,район Аэропорт,"город Москва, улица Верхняя Масловка, дом 21",20,37.5602081037066,55.795709761120996,"{type=Point, coordinates=[37.5602081037066, 55.795709761121]}",Маленький
331,668,Кулинария 360,637410820,кафе,Северный административный округ,район Аэропорт,"город Москва, улица Верхняя Масловка, дом 29",11,37.5568193617242,55.79874529246227,"{type=Point, coordinates=[37.5568193617242, 55.79874529246227]}",Маленький
332,669,ПРАВDА Кофе,637410821,кафе,Северный административный округ,район Беговой,"город Москва, улица Нижняя Масловка, дом 5, корпус 1",8,37.58427638454162,55.79135795346096,"{type=Point, coordinates=[37.58427638454162, 55.79135795346096]}",Маленький
333,670,Wake cup,637410849,кафе,Северный административный округ,район Беговой,"город Москва, улица Нижняя Масловка, дом 5, корпус 1",12,37.584270580796044,55.79136845547675,"{type=Point, coordinates=[37.584270580796044, 55.79136845547675]}",Маленький
334,672,Шоколадница,637411008,кафе,Северный административный округ,Савёловский район,"город Москва, улица Нижняя Масловка, дом 14",50,37.56456937657181,55.7935414970026,"{type=Point, coordinates=[37.5645693765718, 55.7935414970026]}",Средний
335,676,Тиа,637411246,кафе,Восточный административный округ,район Сокольники,"город Москва, улица Матросская Тишина, дом 23/7, корпус 1",44,37.69667658529939,55.79201748005253,"{type=Point, coordinates=[37.69667658529939, 55.79201748005253]}",Средний
336,677,Чайный клуб «Мойчай.ру»,637411247,кафе,Центральный административный округ,Басманный район,"город Москва, улица Покровка, дом 41, строение 1",35,37.651933189218894,55.762270022865216,"{type=Point, coordinates=[37.6519331892189, 55.76227002286522]}",Средний
337,678,Бейрут,637411267,кафе,Центральный административный округ,Басманный район,"город Москва, улица Машкова, дом 22",25,37.65329751161747,55.76427762136778,"{type=Point, coordinates=[37.653297511617474, 55.764277621367775]}",Маленький
338,679,Кафе «Сюрприз»,637411378,кафе,Южный административный округ,район Бирюлёво Западное,"город Москва, Медынская улица, дом 5, корпус 1",38,37.648433530641505,55.589936089294135,"{type=Point, coordinates=[37.64843353064151, 55.58993608929413]}",Средний
339,680,КАФЕ «САЛСАБИЛ»,637411381,кафе,Северо-Восточный административный округ,Бабушкинский район,"город Москва, улица Менжинского, дом 3",32,37.6799188503469,55.86574179671525,"{type=Point, coordinates=[37.679918850346894, 55.86574179671525]}",Средний
340,681,Итальянское кафе,637411416,кафе,Восточный административный округ,район Перово,"город Москва, улица Металлургов, дом 7/18",48,37.7803584562368,55.75757112398591,"{type=Point, coordinates=[37.7803584562368, 55.7575711239859]}",Средний
341,683,Кафе 12,637411564,кафе,Центральный административный округ,Мещанский район,"город Москва, Мещанская улица, дом 12",36,37.627903084701096,55.77632293601428,"{type=Point, coordinates=[37.627903084701096, 55.77632293601428]}",Средний
342,684,Дионис,637411567,кафе,Юго-Западный административный округ,Обручевский район,"город Москва, улица Миклухо-Маклая, дом 3",45,37.498607848952815,55.654906533606265,"{type=Point, coordinates=[37.49860784895281, 55.65490653360626]}",Средний
343,685,Авеню,637411594,кафе,Юго-Западный административный округ,Обручевский район,"город Москва, улица Миклухо-Маклая, дом 5",40,37.49967015548679,55.65531506202047,"{type=Point, coordinates=[37.49967015548679, 55.65531506202046]}",Средний
344,686,Медуза,637411646,кафе,Юго-Западный административный округ,Обручевский район,"город Москва, улица Миклухо-Маклая, дом 9",30,37.50136960273658,55.6545963372241,"{type=Point, coordinates=[37.501369602736574, 55.6545963372241]}",Маленький
345,687,Ликия,637411698,кафе,Юго-Западный административный округ,Обручевский район,"город Москва, улица Миклухо-Маклая, дом 9",24,37.50136960273658,55.6545963372241,"{type=Point, coordinates=[37.501369602736574, 55.6545963372241]}",Маленький
346,688,Мираж,637411699,кафе,Юго-Западный административный округ,Обручевский район,"город Москва, улица Миклухо-Маклая, дом 13",40,37.504295409061726,55.6524941100319,"{type=Point, coordinates=[37.504295409061726, 55.6524941100319]}",Средний
347,689,Галилео,637411810,кафе,Юго-Западный административный округ,Обручевский район,"город Москва, улица Миклухо-Маклая, дом 13",90,37.504295409061726,55.6524941100319,"{type=Point, coordinates=[37.504295409061726, 55.6524941100319]}",Большой
348,690,Пикассо кафе-бар,637411869,кафе,Юго-Западный административный округ,Обручевский район,"город Москва, улица Миклухо-Маклая, дом 15",48,37.505465941632096,55.65313539628026,"{type=Point, coordinates=[37.5054659416321, 55.65313539628026]}",Средний
349,691,Сити,637411882,кафе,Юго-Западный административный округ,Обручевский район,"город Москва, улица Миклухо-Маклая, дом 17",48,37.506074339988906,55.65200499246495,"{type=Point, coordinates=[37.50607433998891, 55.65200499246495]}",Средний
350,692,Синдбад,637411889,кафе,Юго-Западный административный округ,Обручевский район,"город Москва, улица Миклухо-Маклая, дом 19",45,37.50715798219708,55.65242065119514,"{type=Point, coordinates=[37.50715798219708, 55.65242065119514]}",Средний
351,694,Пети,637411987,кафе,Юго-Западный административный округ,Обручевский район,"город Москва, улица Миклухо-Маклая, дом 21, корпус 1",48,37.50824698596067,55.65185956718315,"{type=Point, coordinates=[37.50824698596067, 55.65185956718315]}",Средний
352,695,Кампус кафе-бар,637412014,кафе,Юго-Западный административный округ,Обручевский район,"город Москва, улица Миклухо-Маклая, дом 21, корпус 3",48,37.508512963328975,55.65127499182007,"{type=Point, coordinates=[37.508512963328975, 55.65127499182006]}",Средний
353,696,Домино'с Пицца,637412166,кафе,Юго-Западный административный округ,район Коньково,"город Москва, улица Миклухо-Маклая, дом 55",20,37.533077,55.641254,"{type=Point, coordinates=[37.533077, 55.641254]}",Маленький
354,700,Сухарева Башня,637412264,кафе,Центральный административный округ,Мещанский район,"город Москва, проспект Мира, дом 5, корпус 1",10,37.631901146838345,55.77422684421026,"{type=Point, coordinates=[37.631901146838345, 55.77422684421026]}",Маленький
355,701,Ваби саби,637412327,кафе,Центральный административный округ,Мещанский район,"город Москва, проспект Мира, дом 29",60,37.63248325476471,55.77984202910631,"{type=Point, coordinates=[37.6324832547647, 55.7798420291063]}",Средний
356,702,Шоколадница,637412334,кафе,Центральный административный округ,Мещанский район,"город Москва, проспект Мира, дом 29",40,37.6325023471684,55.7798111946039,"{type=Point, coordinates=[37.6325023471684, 55.7798111946039]}",Средний
357,703,Джаганнат,637412336,кафе,Центральный административный округ,Мещанский район,"город Москва, проспект Мира, дом 31",25,37.6325990886982,55.78013798670796,"{type=Point, coordinates=[37.6325990886982, 55.78013798670796]}",Маленький
358,704,Krispy Creme,637412443,кафе,Центральный административный округ,Мещанский район,"город Москва, проспект Мира, дом 40",36,37.63371606098804,55.78023653983508,"{type=Point, coordinates=[37.63371606098805, 55.78023653983508]}",Средний
359,705,Французская пекарня,637412511,кафе,Центральный административный округ,Мещанский район,"город Москва, проспект Мира, дом 47, строение 1",16,37.63380980529741,55.7829814903936,"{type=Point, coordinates=[37.63380980529741, 55.78298149039359]}",Маленький
360,706,Де Марко,637412520,кафе,Центральный административный округ,Мещанский район,"город Москва, проспект Мира, дом 46",45,37.634005577252495,55.781349735306996,"{type=Point, coordinates=[37.6340055772525, 55.781349735307]}",Средний
361,707,Prime Прайм стар,637412546,кафе,Центральный административный округ,Мещанский район,"город Москва, проспект Мира, дом 48, строение 6",32,37.63426144725012,55.7817473929908,"{type=Point, coordinates=[37.63426144725012, 55.7817473929908]}",Средний
362,709,Брусника,637412600,кафе,Центральный административный округ,Мещанский район,"город Москва, проспект Мира, дом 49",40,37.63383147261421,55.78351338985643,"{type=Point, coordinates=[37.6338314726142, 55.78351338985643]}",Средний
363,710,Азбука Вкуса,637412652,кафе,Центральный административный округ,Мещанский район,"город Москва, проспект Мира, дом 49",20,37.633860380794495,55.783520851815034,"{type=Point, coordinates=[37.6338603807945, 55.78352085181502]}",Маленький
364,712,Монтэ,637412656,кафе,Центральный административный округ,Мещанский район,"город Москва, проспект Мира, дом 56, строение 2",40,37.6354932862394,55.7839562119152,"{type=Point, coordinates=[37.6354932862394, 55.7839562119152]}",Средний
365,715,Wine Point,637412839,кафе,Центральный административный округ,Мещанский район,"город Москва, проспект Мира, дом 77, корпус 1",35,37.63429892286436,55.78994653781263,"{type=Point, coordinates=[37.63429892286436, 55.78994653781263]}",Средний
366,716,Крылышко-ножка,637412866,кафе,Центральный административный округ,Мещанский район,"город Москва, проспект Мира, дом 77, корпус 2",24,37.63372750265789,55.78995333648602,"{type=Point, coordinates=[37.633727502657884, 55.789953336486015]}",Маленький
367,720,Шоколадница,637413052,кафе,Северо-Восточный административный округ,Останкинский район,"город Москва, проспект Мира, дом 97",100,37.6362748386924,55.8084044166187,"{type=Point, coordinates=[37.6362748386924, 55.8084044166187]}",Большой
368,722,Шоколадница,637413185,кафе,Северо-Восточный административный округ,Алексеевский район,"город Москва, проспект Мира, дом 112",150,37.637624,55.807424999,"{type=Point, coordinates=[37.637624, 55.807424999]}",Большой
369,725,КАФЕ «ШТОЛЛЕ»,637413293,кафе,Северо-Восточный административный округ,Алексеевский район,"город Москва, проспект Мира, дом 118",22,37.63834982672317,55.81078132111588,"{type=Point, coordinates=[37.63834982672316, 55.810781321115876]}",Маленький
370,729,ТАВЕРНА «СИВЫЙ МЕРИН»,637413483,кафе,Северо-Восточный административный округ,Алексеевский район,"город Москва, проспект Мира, дом 124, корпус 4",40,37.639506546199605,55.816082951694206,"{type=Point, coordinates=[37.6395065461996, 55.8160829516942]}",Средний
371,730,Кафе «БИРХАУС»,637413502,кафе,Северо-Восточный административный округ,Алексеевский район,"город Москва, проспект Мира, дом 124, корпус 4",50,37.639473603683705,55.8157274744887,"{type=Point, coordinates=[37.6394736036837, 55.8157274744887]}",Средний
372,732,Кафе «ЗОЛОТАЯ ЛЕСТНИЦА»,637413608,кафе,Северо-Восточный административный округ,Алексеевский район,"город Москва, проспект Мира, дом 186, корпус 1",41,37.650744999000004,55.829046999999996,"{type=Point, coordinates=[37.650744999, 55.829047]}",Средний
373,734,Кобзарь,637413648,кафе,Юго-Восточный административный округ,Рязанский район,"город Москва, улица Михайлова, дом 29, корпус 3",60,37.771912915866935,55.72721440470783,"{type=Point, coordinates=[37.77191291586694, 55.72721440470782]}",Средний
374,737,Сушистор,637413793,кафе,Северный административный округ,район Коптево,"город Москва, Михалковская улица, дом 8",15,37.537507978721855,55.83792604714797,"{type=Point, coordinates=[37.53750797872186, 55.837926047147974]}",Маленький
375,739,Чайхана Восточная сказка,637413845,кафе,Северный административный округ,район Коптево,"город Москва, Михалковская улица, дом 13",45,37.527347999999996,55.839271999999994,"{type=Point, coordinates=[37.527348, 55.839272]}",Средний
376,740,Кафе «I love kake»,637413928,кафе,Центральный административный округ,Пресненский район,"город Москва, Большой Патриарший переулок, дом 4",44,37.59189587336565,55.7624594460658,"{type=Point, coordinates=[37.591895873365644, 55.7624594460658]}",Средний
377,742,Кафе «Джойя»,637413982,кафе,Центральный административный округ,Пресненский район,"город Москва, Большой Патриарший переулок, дом 12, строение 1",48,37.5933659968639,55.7632314842072,"{type=Point, coordinates=[37.5933659968639, 55.7632314842072]}",Средний
378,744,Кафе-Бильярд,637414167,кафе,Северо-Западный административный округ,район Хорошёво-Мнёвники,"город Москва, улица Мнёвники, дом 7, корпус 2",15,37.4940526267905,55.7712942444722,"{type=Point, coordinates=[37.4940526267905, 55.7712942444722]}",Маленький
379,746,ШОКОЛАДНИЦА,637414246,кафе,Западный административный округ,Можайский район,"город Москва, Можайское шоссе, дом 30",68,37.4198052523698,55.7198421822642,"{type=Point, coordinates=[37.4198052523698, 55.7198421822642]}",Средний
380,747,КОФЕ ХАУС,637414272,кафе,Западный административный округ,Можайский район,"город Москва, Можайское шоссе, дом 31, корпус 1",50,37.4192204700536,55.7184675461232,"{type=Point, coordinates=[37.4192204700536, 55.7184675461232]}",Средний
381,751,Трын-Трава,637414432,кафе,Западный административный округ,район Кунцево,"город Москва, Молодогвардейская улица, дом 28, корпус 1",90,37.41800509886442,55.734247715229515,"{type=Point, coordinates=[37.41800509886443, 55.7342477152295]}",Большой
382,753,КАФЕ «Венская сказка»,637414487,кафе,Западный административный округ,район Раменки,"город Москва, Мосфильмовская улица, дом 17/25",60,37.51749,55.71591899999991,"{type=Point, coordinates=[37.51749, 55.7159189999999]}",Средний
383,755,ПИЦЦЕРИЯ,637414590,кафе,Западный административный округ,район Раменки,"город Москва, Мосфильмовская улица, дом 23",10,37.5140530734274,55.7137169104121,"{type=Point, coordinates=[37.5140530734274, 55.7137169104121]}",Маленький
384,759,Журфак,637414724,кафе,Центральный административный округ,район Хамовники,"город Москва, Большой Афанасьевский переулок, дом 3, строение 3",49,37.597158215101295,55.7449440580204,"{type=Point, coordinates=[37.5971582151013, 55.7449440580204]}",Средний
385,761,Кафе «Самарканд»,637414789,кафе,Южный административный округ,район Нагатино-Садовники,"город Москва, Нагатинская улица, дом 13, корпус 1",42,37.640580012686684,55.68003813375906,"{type=Point, coordinates=[37.640580012686684, 55.68003813375907]}",Средний
386,762,ЧЕБУРЕЧНАЯ №7,637414857,кафе,Южный административный округ,район Нагатино-Садовники,"город Москва, Нагатинская улица, дом 33",48,37.66019549236941,55.67760375073151,"{type=Point, coordinates=[37.6601954923694, 55.6776037507315]}",Средний
387,763,Кафе «ГАЛЕРЕЯ»,637414873,кафе,Юго-Западный административный округ,район Котловка,"город Москва, Нагорная улица, владение 25, строение 1",150,37.599784,55.67662573444853,"{type=Point, coordinates=[37.599784, 55.67662573444853]}",Большой
388,764,ХИНКАЛЬ ПАЛАС,637414915,кафе,Юго-Западный административный округ,район Котловка,"город Москва, Нагорный бульвар, дом 5, корпус 1",40,37.593848370177,55.673787611239604,"{type=Point, coordinates=[37.593848370177, 55.6737876112396]}",Средний
389,765,Шашлычная Курдюк,637415039,кафе,Северо-Западный административный округ,район Хорошёво-Мнёвники,"город Москва, улица Народного Ополчения, дом 22, корпус 1",40,37.480103131310635,55.7793429841127,"{type=Point, coordinates=[37.48010313131063, 55.7793429841127]}",Средний
390,769,КАФЕ «ИНТЕРПАБ»,637415256,кафе,Северо-Западный административный округ,район Щукино,"город Москва, улица Народного Ополчения, дом 48, корпус 1",80,37.49503579006849,55.7940059197824,"{type=Point, coordinates=[37.4950357900685, 55.7940059197824]}",Большой
391,771,КОФЕЙНЯ «ШОКОЛАДНИЦА»,637415387,кафе,Северо-Западный административный округ,район Щукино,"город Москва, улица Народного Ополчения, дом 49, корпус 1",128,37.4946861125473,55.79477079022809,"{type=Point, coordinates=[37.4946861125473, 55.7947707902281]}",Большой
392,775,ПОРОСЕЛЛО,637415547,кафе,Центральный административный округ,Мещанский район,"город Москва, Неглинная улица, дом 16/2, строение 4",25,37.62049043031435,55.765103466725186,"{type=Point, coordinates=[37.62049043031435, 55.76510346672519]}",Маленький
393,776,Пиццерия «Папа Джонс»,637415680,кафе,Центральный административный округ,Мещанский район,"город Москва, Неглинная улица, дом 16/2, строение 4",24,37.62048921429146,55.765102637618675,"{type=Point, coordinates=[37.62048921429147, 55.76510263761868]}",Маленький
394,777,Сыто пьяно,637415681,кафе,Центральный административный округ,Мещанский район,"город Москва, Неглинная улица, дом 18, строение 1",40,37.620908125025004,55.765621851105394,"{type=Point, coordinates=[37.620908125025, 55.7656218511054]}",Средний
395,781,Кафе «Coffee Bean»,637415807,кафе,Центральный административный округ,Пресненский район,"город Москва, Брюсов переулок, дом 2/14, строение 6",15,37.60576555397607,55.75668057369329,"{type=Point, coordinates=[37.60576555397607, 55.75668057369328]}",Маленький
396,782,Джаз-Клуб Союз Композиторов,637415823,кафе,Центральный административный округ,Тверской район,"город Москва, Брюсов переулок, дом 8-10, строение 2",90,37.60921987724511,55.7598281998584,"{type=Point, coordinates=[37.6092198772451, 55.7598281998584]}",Большой
397,783,Могучая кучка,637415843,кафе,Центральный административный округ,Пресненский район,"город Москва, Брюсов переулок, дом 8-10, строение 2",30,37.60726007853251,55.759066326139354,"{type=Point, coordinates=[37.60726007853251, 55.759066326139354]}",Маленький
398,784,Траттория ПЕПЕ,637415895,кафе,Западный административный округ,район Очаково-Матвеевское,"город Москва, Нежинская улица, дом 5Б",95,37.47487999999999,55.71382374519013,"{type=Point, coordinates=[37.47487999999999, 55.71382374519013]}",Большой
399,786,Кафе «Якитория»,637416017,кафе,Центральный административный округ,Таганский район,"город Москва, Нижегородская улица, дом 2, корпус 1",106,37.6747545229028,55.7387369570988,"{type=Point, coordinates=[37.6747545229028, 55.7387369570988]}",Большой
400,788,Кафе Хинкальная,637416055,кафе,Юго-Восточный административный округ,Нижегородский район,"город Москва, Нижегородская улица, дом 70, корпус 1",34,37.70996473060392,55.73326616366957,"{type=Point, coordinates=[37.70996473060392, 55.73326616366956]}",Средний
401,791,ЭРИСТАВИ,637416320,кафе,Южный административный округ,район Нагатинский Затон,"город Москва, улица Новинки, дом 31",45,37.678223051165745,55.676567162266906,"{type=Point, coordinates=[37.678223051165745, 55.67656716226691]}",Средний
402,792,Семейное кафе,637416347,кафе,Юго-Восточный административный округ,Рязанский район,"город Москва, 1-я Новокузьминская улица, дом 3",50,37.785212,55.716726999999906,"{type=Point, coordinates=[37.785212, 55.7167269999999]}",Средний
